RecordID,Date,Time,Address,Longitude,Latitude,Group
4,2016-11-25,11:40:00,2710 TOWNE DR BEAVERCREEK OH 4,-84.0515829,39.7666812,Dayton
22,2016-12-06,17:25:00,1164 E DAYTON YELLOW SPRINGS RD FAIRBORN OH 4532,-83.9962796,39.7830273,Dayton
23,2016-01-12,21:30:00,9000 Springmeadow Ln Trotwood OH 4542,-84.2961706,39.8204415,Dayton
27,2016-12-19,17:20:00,315 South St Leesburg OH 32374,-83.550259,39.346769,Dayton
741,2016-01-25,17:05:00,389 W Main St Saint Paris OH 43072,-83.9677347,40.1299679,Dayton
742,2016-11-28,12:00:00,2574 KITE RD SAINT PARIS OH 43072,-83.9067569,40.0838493,Dayton
743,2016-10-20,14:00:00,7800 US RT 36 St Paris OH 43072,-83.9088435,40.1221591,Dayton
767,2016-02-05,19:55:00,244 Short Game Farm Rd Urbana OH 43078,-83.7371005,40.1935482,Dayton
768,2016-02-25,23:45:00,139 Taft Ave Urbana OH 43078,-83.751941,40.1197075,Dayton
769,2016-03-25,10:10:00,950 Miami St Urbana OH 43078,-83.7670644,40.1091727,Dayton
770,2016-04-01,10:30:00,718 GWYNNE ST URBANA OH 43078,-83.767359,40.113962,Dayton
771,2016-05-11,21:50:00,128 Orchard Dr Urbana OH 43078,-83.757414,40.101538,Dayton
772,2016-05-31,10:35:00,122 Taft Ave Urbana OH 43078,-83.7514093,40.1198585,Dayton
773,2016-06-01,10:50:00,331 E Lawn Ave Urbana OH 43078,-83.7405158,40.1104246,Dayton
774,2016-06-02,18:30:00,225 Sara St Urbana OH 43078,-83.768223,40.11105,Dayton
775,2016-06-24,11:10:00,929 Railroad St Urbana OH 43078,-83.758553,40.122776,Dayton
776,2016-06-27,11:00:00,318 CHURCH ST URBANA OH 43078,-83.7482964,40.110027,Dayton
777,2016-07-29,19:30:00,929 Railroad St URBANA OH 43078,-83.758553,40.122776,Dayton
778,2016-08-16,17:20:00,633 WASHINGTON AVE URBANA OH 43078,-83.739459,40.1115968,Dayton
779,2016-08-17,19:30:00,627 E Court St Urbana OH 43078,-83.739923,40.108279,Dayton
780,2016-08-24,13:05:00,5860 Terre Haute Rd Apt 26 Urbana OH 43078,-83.8839409,40.03323,Dayton
781,2016-09-22,20:50:00,5700 STATE ROUTE 55 URBANA OH 43078,-83.8755655,40.0520048,Dayton
782,2016-09-15,15:30:00,808 N Oakland St Urbana OH 43078,-83.7644232,40.1172924,Dayton
783,2016-09-27,13:30:00,140 DEWEY AVE Urbana OH 43078,-83.7578862,40.1071952,Dayton
784,2016-09-21,02:05:00,422 STORMS AVE Urbana OH 43078,-83.7610491,40.1050578,Dayton
785,2016-11-28,17:10:00,4611 CEDAR CREEK RD URBANA OH 43078,-83.796158,40.046629,Dayton
786,2016-11-04,16:59:00,4403 US HIGHWAY 68 URBANA OH 43078,-83.77902,40.0491111,Dayton
787,2016-11-21,13:40:00,1645 SHORT CUT RD Urbana OH 43078,-83.7268422,40.0857956,Dayton
788,2016-12-12,17:50:00,518 BLOOMFIELD AVE URBANA OH 43078,-83.7436456,40.1186954,Dayton
789,2016-12-19,18:35:00,934 E LAWN AVE URBANA OH 43078,-83.740013,40.119454,Dayton
1212,2016-09-29,15:55:00,150 STATE ST JEFFERSONVILLE OH 43128,-83.5526589,39.6512849,Dayton
1213,2016-09-15,09:20:00,221 STATE ST JEFFERSONVILLE OH 43128,-83.5459291,39.6508487,Dayton
1214,2016-11-08,15:35:00,8000 Factory Shops Blvd Jeffersonville OH 43128,-83.60264,39.6191841,Dayton
1215,2016-10-12,13:35:00,8000 Factory Shops Blvd Jeffersonville OH 43128,-83.60264,39.6191841,Dayton
1216,2016-11-15,20:30:00,73 N MAIN ST JEFFERSONVILLE OH 43128,-83.5712088,39.6609821,Dayton
1217,2016-01-29,16:05:00,489 Woodsview Sq Jeffersonvlle OH 43128,-83.569523,39.654882,Dayton
1218,2016-03-28,19:45:00,221 State St Jeffersonvlle OH 43128,-83.5459291,39.6508487,Dayton
1219,2016-05-11,16:15:00,194 Woodsview Dr Jeffersonvlle OH 43128,-83.569098,39.652928,Dayton
1438,2016-08-15,15:30:00,12475 State Route 41 South Solon OH 43153,-83.610686,39.743426,Dayton
1474,2016-04-24,20:45:00,2531 Parrott Station Rd NW Wshngtn Ct Hs OH 43160,-83.532617,39.613962,Dayton
1485,2016-07-24,23:20:00,9317 State Route 41 NW Wshngtn Ct Hs OH 43160,-83.5320591,39.6340617,Dayton
3273,2016-10-25,22:55:00,"131 ERIE AVE FAIRBORN, OH 43245",-84.013946,39.816115,Dayton
3313,2016-12-14,21:20:00,833 STUMP SPRINGFIELD OH 43305,-83.830279,39.915297,Dayton
3314,2016-12-14,23:05:00,325 S DOUGLAS SPRINGFIELD OH 43305,-83.779146,39.918456,Dayton
3316,2016-10-12,14:30:00,525 E Brown Ave Apt A Bellefontaine OH 43311,-83.7506361,40.365103,Dayton
3317,2016-12-20,17:45:00,1106 N MAIN ST BELLEFONTAINE OH 43311,-83.7559387,40.3769201,Dayton
3327,2016-12-15,12:00:00,313 Koke De Graff OH 43318,-83.917363,40.3151775,Dayton
3355,2016-12-22,19:25:00,1324 HIGHWAY 24 DEGRAFF OH 43343,-83.9262972,40.3619641,Dayton
3364,2016-01-14,13:20:00,6555 Us Highway 68 S West Liberty OH 43357,-83.7557908,40.2685778,Dayton
12197,2016-11-18,06:20:00,1201-1299 COLUMBIA AVE MIDDLETOWN OH 44504,-84.400303,39.518432,Dayton
13123,2016-10-05,03:15:00,1255 COLORADO DR XENIA OH 44830,-83.9668267,39.6672231,Dayton
13630,2016-12-20,15:20:00,203 COUNTY LINE RD COLLEGE COR OH 45003,-84.812724,39.567572,Dayton
13631,2016-02-20,11:20:00,964 Dubois Rd Carlisle OH 45005,-84.332325,39.570296,Dayton
13632,2016-04-04,18:25:00,810 DUBOIS COURT CARLISLE OH 45005,-84.328433,39.570284,Dayton
13633,2016-04-13,16:50:00,391 CHAMBERLAIN ROAD CARLISLE OH 45005,-84.340588,39.584859,Dayton
13634,2016-05-23,06:00:00,133 Dalton Ave Carlisle OH 45005,-84.298948,39.585576,Dayton
13635,2016-06-06,20:50:00,1 HIGHLAND ST CARLISLE OH 45005,-84.295308,39.56412,Dayton
13636,2016-06-30,03:00:00,4544 Pennyroyal Rd Carlisle OH 45005,-84.280744,39.582388,Dayton
13637,2016-07-15,23:55:00,576 BEACHLER RD CARLISLE OH 45005,-84.326224,39.5776309,Dayton
13638,2016-08-22,00:30:00,221 JANET AVE APT 1 CARLISLE OH 45005,-84.3030689,39.589244,Dayton
13639,2016-09-14,15:15:00,834 2ND ST E Carlisle OH 45005,-84.2871,39.563753,Dayton
13640,2016-11-30,23:20:00,7364 BROOKSONE DR Carlisle OH 45005,-84.360364,39.559343,Dayton
13641,2016-01-02,23:35:00,6742 MAPLE ROAD FRANKLIN OH 45005,-84.3197409,39.542625,Dayton
13642,2016-02-03,22:05:00,517 Anderson St Franklin OH 45005,-84.3031639,39.5571609,Dayton
13643,2016-02-28,05:00:00,281 Jamaica Rd Franklin OH 45005,-84.324157,39.587024,Dayton
13644,2016-02-11,01:20:00,139 BOULDER DR FRANKLIN OH 45005,-84.2918617,39.5614972,Dayton
13645,2016-02-28,21:20:00,597 Forest Ave FRANKLIN OH 45005,-84.3120923,39.5646688,Dayton
13646,2016-03-14,14:07:00,2000 COMMERCE CENTER DR FRANKLIN OH 45005,-84.2685998,39.5696067,Dayton
13647,2016-03-23,16:10:00,760 Tibbals St Franklin OH 45005,-84.309842,39.55633,Dayton
13648,2016-03-30,10:40:00,9154 Mcguire Ln Franklin OH 45005,-84.264033,39.575723,Dayton
13649,2016-04-14,15:05:00,3350 Moyer Dr Franklin OH 45005,-84.287759,39.490773,Dayton
13650,2016-04-14,18:55:00,1037 Dale Ave Franklin OH 45005,-84.28399,39.565149,Dayton
13651,2016-04-22,10:55:00,434 Martha Dr Franklin OH 45005,-84.291127,39.558319,Dayton
13652,2016-05-19,06:30:00,CONOVER DR Franklin OH 45005,-84.2770932,39.557663,Dayton
13653,2016-05-25,14:15:00,7866 Franklin Trenton Rd Franklin OH 45005,-84.342666,39.557187,Dayton
13654,2016-06-29,03:50:00,3674 Village Dr Franklin OH 45005,-84.3262711,39.4971623,Dayton
13655,2016-07-19,03:15:00,665 VIRGINIA AVE FRANKLIN OH 45005,-84.289473,39.567177,Dayton
13656,2016-07-06,19:35:00,6462 Locust Ln Franklin OH 45005,-84.325926,39.506746,Dayton
13657,2016-07-16,02:15:00,153 MINNICK ST Franklin OH 45005,-84.292378,39.551768,Dayton
13658,2016-07-19,04:20:00,3695 Village Dr Franklin OH 45005,-84.3261954,39.4976288,Dayton
13659,2016-10-11,02:55:00,3238 MOYER DR Franklin OH 45005,-84.28792,39.489104,Dayton
13660,2016-07-25,11:45:00,21 Overlook Dr Franklin OH 45005,-84.285006,39.572106,Dayton
13661,2016-07-27,08:00:00,208 Lynwood Place Franklin OH 45005,-84.299205,39.561041,Dayton
13662,2016-07-28,00:55:00,172 Minnick St Franklin OH 45005,-84.291873,39.55144,Dayton
13663,2016-07-26,11:45:00,"39.555341, -84.295110 421 Mission Ln, Franklin, OH 45005 Franklin OH 45005",-84.2953668,39.5550034,Dayton
13664,2016-08-04,22:55:00,7527 SKYLARK CIRCLE FRANKLIN OH 45005,-84.337204,39.579947,Dayton
13665,2016-08-06,00:55:00,8124 WESTLAWN DR FRANKLIN OH 45005,-84.280722,39.561484,Dayton
13666,2016-08-04,18:45:00,224 Janet Ave Franklin OH 45005,-84.302531,39.589247,Dayton
13667,2016-08-22,02:30:00,450 DAVID BV FRANKLIN OH 45005,-84.295269,39.557555,Dayton
13668,2016-08-23,19:10:00,131 STADIA DR FRANKLIN OH 45005,-84.29071,39.569883,Dayton
13669,2016-09-07,03:55:00,5 Schenck STREET FRANKLIN OH 45005,-84.3006614,39.5692737,Dayton
13670,2016-09-10,00:50:00,518 MARTHA DR FRANKLIN OH 45005,-84.2912944,39.5571772,Dayton
13671,2016-09-26,21:20:00,304 Allen St Franklin OH 45005,-84.29888,39.5587329,Dayton
13672,2016-09-13,03:45:00,14 8TH ST FRANKLIN OH 45005,-84.308795,39.555539,Dayton
13673,2016-10-06,16:00:00,111 WARRNER FRANKLIN OH 45005,-84.299485,39.571176,Dayton
13674,2016-09-27,01:55:00,676 DAVID BLVD Franklin OH 45005,-84.290246,39.559382,Dayton
13675,2016-10-05,06:35:00,7025 COBBLESTONE FRANKLIN OH 45005,-84.3615988,39.5551997,Dayton
13676,2016-10-04,11:45:00,420 PARK AVENUE   APT C FRANKLIN OH 45005,-84.309932,39.5647049,Dayton
13677,2016-10-24,23:47:00,7950 FRANKLIN TRENTON RD FRANKLIN OH 45005,-84.3444355,39.5562434,Dayton
13678,2016-10-29,00:20:00,923 SOUTH RIVER ST FRANKLIN OH 45005,-84.311033,39.553993,Dayton
13679,2016-11-10,14:45:00,1275 EAST 2ND STREET FRANKLIN OH 45005,-84.2777372,39.566258,Dayton
13680,2016-12-01,18:40:00,7866 FRANKLIN TRENTON RD FRANKLIN OH 45005,-84.342666,39.557187,Dayton
13681,2016-11-15,00:40:00,8124 WESTLAWN DR FRANKLIN OH 45005,-84.280722,39.561484,Dayton
13682,2016-11-23,09:50:00,1131 S MAIN STREET FRANKLIN OH 45005,-84.313379,39.550961,Dayton
13683,2016-12-06,16:10:00,940 FRANKLIN COMMONS CIR FRANKLIN OH 45005,-84.2818612,39.5553071,Dayton
13684,2016-11-23,06:00:00,142 ARLINGTON DR FRANKLIN OH 45005,-84.293508,39.570527,Dayton
13685,2016-11-29,05:05:00,92 BOULDER DR FRANKLIN OH 45005,-84.2914979,39.560669,Dayton
13686,2016-12-08,16:05:00,7374 COUNTRY WALK DR FRANKLIN OH 45005,-84.357412,39.560476,Dayton
13687,2016-12-08,00:05:00,830 W Dubois CT FRANKLIN OH 45005,-84.32939,39.569912,Dayton
13688,2016-12-08,01:50:00,72 LONG MEADOW DR FRANKLIN OH 45005,-84.2799906,39.5409149,Dayton
13689,2016-12-08,02:15:00,500-568 EAST 2ND STREET FRANKLIN OH 45005,-84.294279,39.561837,Dayton
13690,2016-12-08,03:55:00,599 SPRING AVE Franklin OH 45005,-84.3102048,39.5675951,Dayton
13691,2016-12-20,18:25:00,3441 VILLAGE DR FRANKLIN OH 45005,-84.327226,39.4939133,Dayton
13692,2016-12-22,00:40:00,98 BOULDER DR FRANKLIN OH 45005,-84.2916642,39.560683,Dayton
13693,2016-03-11,13:30:00,3456 S Dixie Hwy Middletown OH 45005,-84.3352972,39.4950946,Dayton
13694,2016-03-28,17:55:00,6930 MT VERNON ST MIDDLETOWN OH 45005,-84.3359895,39.4887733,Dayton
13695,2016-07-13,15:15:00,3439 PENDLETON CIRCLE MIDDLETOWN OH 45005,-84.3344426,39.4963995,Dayton
13696,2016-12-01,01:45:00,1862 Brentwood St Middletown OH 45005,-84.377714,39.4956858,Dayton
14030,2016-05-16,19:15:00,2628 US STATE ROUTE 42 SOUTH Lebanon OH 45036,-84.163001,39.4738791,Dayton
14031,2016-01-29,20:55:00,300 June Marie Dr Lebanon OH 45036,-84.211349,39.455502,Dayton
14032,2016-02-24,19:50:00,899 Whispering Pine Way Lebanon OH 45036,-84.194038,39.423434,Dayton
14033,2016-03-14,15:10:00,924 N Broadway St Lebanon OH 45036,-84.203929,39.452129,Dayton
14034,2016-03-30,14:45:00,322 Summit St Lebanon OH 45036,-84.187264,39.439046,Dayton
14035,2016-05-02,15:10:00,559 W Main St Lebanon OH 45036,-84.2189451,39.4338516,Dayton
14036,2016-04-22,18:45:00,1217 Turfway Ct Lebanon OH 45036,-84.197835,39.413206,Dayton
14037,2016-06-16,13:50:00,744 COLUMBUS AVE LEBANON OH 45036,-84.1913025,39.4437475,Dayton
14038,2016-06-06,16:05:00,680 N BROADWAY ST Lebanon OH 45036,-84.20408,39.445137,Dayton
14039,2016-06-10,01:40:00,121 N Broadway St Lebanon OH 45036,-84.2086999,39.436279,Dayton
14040,2016-06-29,08:10:00,226 E Warren St Lebanon OH 45036,-84.203851,39.436543,Dayton
14041,2016-07-18,08:55:00,1327 Oakhurst Ct Lebanon OH 45036,-84.2973026,39.4575725,Dayton
14042,2016-07-30,19:30:00,1078 Hunters Run Dr Lebanon OH 45036,-84.187247,39.453255,Dayton
14043,2016-08-29,20:25:00,848 Meadow Ln Lebanon OH 45036,-84.201768,39.447857,Dayton
14044,2016-08-02,15:20:00,121 N Broadway St Lebanon OH 45036,-84.2086999,39.436279,Dayton
14045,2016-08-14,19:40:00,725 SOUTHLINE DR Lebanon OH 45036,-84.187945,39.441442,Dayton
14046,2016-08-14,22:50:00,1010 - 1098 CARSON CT LEBANON OH 45036,-84.210334,39.456207,Dayton
14047,2016-09-12,04:25:00,10 LAWNDALE LEBANON OH 45036,-84.2059079,39.450331,Dayton
14048,2016-09-04,21:10:00,1065 E Main St LEBANON OH 45036,-84.1859472,39.42784,Dayton
14049,2016-09-17,18:40:00,256 TRIPLE CROWN LEBANON OH 45036,-84.201326,39.414193,Dayton
14050,2016-09-30,01:25:00,907 CARSON DR LEBANON OH 45036,-84.213999,39.450905,Dayton
14051,2016-10-01,01:40:00,463B YALE DR LEBANON OH 45036,-84.2224248,39.4399963,Dayton
14052,2016-10-07,19:35:00,23 SOUTH CORWIN ST Lebanon OH 45036,-84.212542,39.434094,Dayton
14053,2016-10-29,19:50:00,219 W MAIN ST LEBANON OH 45036,-84.212528,39.432831,Dayton
14054,2016-10-20,22:45:00,1536 GARFIELD PARK BLVD LEBANON OH 45036,-84.2125949,39.460083,Dayton
14055,2016-11-05,19:25:00,310 N BROADWAY ST LEBANON OH 45036,-84.207418,39.437964,Dayton
14056,2016-11-12,07:05:00,490 YALE DR Lebanon OH 45036,-84.2204243,39.4408037,Dayton
14057,2016-12-03,20:15:00,623 Crestview Dr Lebanon OH 45036,-84.1903829,39.4408663,Dayton
14058,2016-11-18,06:10:00,343 COLUMBUS AVENUE LEBANON OH 45036,-84.199353,39.438485,Dayton
14059,2016-12-11,20:30:00,752 Tamarack Court  A Lebanon OH 45036,-84.1889918,39.4526037,Dayton
14060,2016-12-09,17:00:00,1145 COMANCHE PL LEBANON OH 45036,-84.2067404,39.4174085,Dayton
14061,2016-12-23,02:40:00,935 GREENGATE DRIVE LEBANON OH 45036,-84.193208,39.421613,Dayton
14112,2016-08-28,23:35:00,6153 JACKSONBURG RD MIDDLETON OH 45042,-84.502744,39.5411209,Dayton
14113,2016-12-02,21:00:00,6989 JACKSONBURG RD MIDDLETON OH 45042,-84.499609,39.5625969,Dayton
14114,2016-02-29,14:00:00,2917 Wilbraham Rd Middletown OH 45042,-84.374288,39.533833,Dayton
14115,2016-03-09,13:05:00,2202 Wilbraham Rd Middletown OH 45042,-84.387896,39.528405,Dayton
14116,2016-01-11,15:50:00,2309 BYRON ST MIDDLETOWN OH 45042,-84.358994,39.538639,Dayton
14117,2016-02-12,18:10:00,2205 Erie Ave Middletown OH 45042,-84.387651,39.5279,Dayton
14118,2016-02-03,15:45:00,2940 Terry Dr Middletown OH 45042,-84.3727742,39.5381911,Dayton
14119,2016-02-10,19:30:00,1104 Sorg Pl Middletown OH 45042,-84.373203,39.524914,Dayton
14120,2016-02-11,16:05:00,4312 Tytus Ave Middletown OH 45042,-84.3529226,39.5418722,Dayton
14121,2016-05-24,06:10:00,7137 Trenton Franklin Rd Middletown OH 45042,-84.367559,39.552801,Dayton
14122,2016-03-31,16:15:00,102 Bellemonte St Middletown OH 45042,-84.381356,39.513737,Dayton
14123,2016-04-11,19:05:00,2015 Clayton Ave Middletown OH 45042,-84.3880889,39.5209705,Dayton
14124,2016-04-13,22:40:00,10361 Preble County Line Rd Middletown OH 45042,-84.482378,39.596811,Dayton
14125,2016-04-19,16:00:00,1762 Middletown Eaton Rd Middletown OH 45042,-84.458695,39.536302,Dayton
14126,2016-04-21,15:40:00,1309 Manchester Ave Middletown OH 45042,-84.3999171,39.5167193,Dayton
14127,2016-04-26,00:55:00,607 Auburn St Middletown OH 45042,-84.385858,39.520048,Dayton
14128,2016-05-12,00:25:00,1607 Manchester Ave Middletown OH 45042,-84.3952481,39.5154637,Dayton
14129,2016-05-19,08:15:00,6741 Franklin Madison Rd Middletown OH 45042,-84.3648879,39.558273,Dayton
14130,2016-05-19,00:00:00,"1094 Park Ln, Middletown, OH 45042 39.524680,-84.366234 Middletown OH 45042",-84.3660532,39.5240971,Dayton
14131,2016-06-05,23:10:00,104 N Sutphin St Middletown OH 45042,-84.38933,39.5143359,Dayton
14132,2016-07-21,16:05:00,3500 Terry Dr Middletown OH 45042,-84.369425,39.541376,Dayton
14133,2016-06-23,18:15:00,6501 Germantown Rd Lot 229 Middletown OH 45042,-84.3834584,39.5511984,Dayton
14134,2016-08-03,17:45:00,4474 Elk Creek Rd Middletown OH 45042,-84.461501,39.504132,Dayton
14135,2016-09-03,01:45:00,8291 KEISTER ROAD Middletown OH 45042,-84.38688,39.583537,Dayton
14136,2016-08-17,01:10:00,6570 georgetown rd middletown OH 45042,-84.3797489,39.5501036,Dayton
14137,2016-09-06,16:35:00,8415 HOOVER CT Middletown OH 45042,-84.38177,39.582198,Dayton
14138,2016-09-15,02:55:00,223 Franklin St Middletown OH 45042,-84.3818046,39.5160842,Dayton
14139,2016-09-23,21:55:00,3223 RAYMOND DR MIDDLETOWN OH 45042,-84.369941,39.527962,Dayton
14140,2016-09-27,00:55:00,"6501 GERMANTOWN RD, LOT 191 MIDDLETOWN OH 45042",-84.3834584,39.5511984,Dayton
14141,2016-09-29,21:00:00,1312 COLUMBIA AVE 2D MIDDLETOWN OH 45042,-84.3987617,39.5179194,Dayton
14142,2016-10-05,16:10:00,"301344 Clark St, Middletown OH 45042",-84.3970678,39.5187958,Dayton
14143,2016-10-10,16:45:00,2804 GROVELAND ST MIDDLETOWN OH 45042,-84.3760299,39.5355329,Dayton
14144,2016-10-13,16:30:00,4104 FISHER AVE MIDDLETOWN OH 45042,-84.358031,39.529903,Dayton
14145,2016-11-02,12:05:00,FOREST HILLS DR MIDDLETOWN OH 45042,-84.3538458,39.5223753,Dayton
14146,2016-11-03,07:55:00,2900 VERITY PARKWAY APT 2 MIDDLETOWN OH 45042,-84.3753579,39.5312679,Dayton
14147,2016-11-06,01:05:00,3013 PRINCETON AVE Middletown OH 45042,-84.373788,39.528697,Dayton
14148,2016-11-11,04:40:00,1613 OBERON DR MIDDLETOWN OH 45042,-84.378479,39.530723,Dayton
14149,2016-11-11,14:10:00,675 N UNIVERSITY BLVD MIDDLETOWN OH 45042,-84.3810242,39.520852,Dayton
14150,2016-11-14,01:20:00,3477 MANCHESTER MIDDLETOWN OH 45042,-84.3674513,39.5288882,Dayton
14151,2016-12-01,01:45:00,3109 HAMPTON PL MIDDLETOWN OH 45042,-84.3720706,39.5139368,Dayton
14152,2016-12-13,19:25:00,1811 MANCHESTER MIDDLETOWN OH 45042,-84.392618,39.514891,Dayton
14154,2016-06-08,18:25:00,2123 HILL AVE LIBERTY TOWNSHIP OH 45044,-84.1489897,39.4653837,Dayton
14160,2016-03-04,17:45:00,250 Hollytree Dr Liberty Twp OH 45044,-84.412722,39.4529489,Dayton
14168,2016-05-31,19:55:00,616 LOUIS PLACE MIDDLE TOWN OH 45044,-84.415394,39.496756,Dayton
14169,2016-09-23,19:55:00,2703 LOPANE AEV MIDDLETON OH 45044,-84.38002,39.503639,Dayton
14170,2016-02-16,23:10:00,202 Vanderveer St Middletown OH 45044,-84.406077,39.5130099,Dayton
14171,2016-01-05,02:50:00,1518 Meadow Ave Middletown OH 45044,-84.400479,39.490979,Dayton
14172,2016-01-06,22:05:00,3111 Hailey Middletown OH 45044,-84.416179,39.455735,Dayton
14173,2016-01-03,02:25:00,622 Lafayette Ave Middletown OH 45044,-84.4158507,39.4941003,Dayton
14174,2016-02-08,20:10:00,3705 Greenwood Dr Middletown OH 45044,-84.364959,39.497217,Dayton
14175,2016-01-21,22:10:00,508 Orchard St Middletown OH 45044,-84.374758,39.506233,Dayton
14176,2016-01-22,16:30:00,733 Trafalgar Ct Middletown OH 45044,-84.339089,39.501898,Dayton
14177,2016-01-13,20:40:00,3920 Roosevelt Blvd Middletown OH 45044,-84.3634003,39.4997428,Dayton
14178,2016-01-28,04:55:00,1645 Jackson Ln Middletown OH 45044,-84.3687048,39.4973913,Dayton
14179,2016-01-27,00:25:00,2636 Halifax Dr Middletown OH 45044,-84.341948,39.483074,Dayton
14180,2016-01-31,19:55:00,1500 Jackson Ln Middletown OH 45044,-84.3688719,39.4990222,Dayton
14181,2016-02-09,20:10:00,2017 Fernwood St Middletown OH 45044,-84.3738518,39.4933879,Dayton
14182,2016-02-12,19:35:00,1118 14th Ave Middletown OH 45044,-84.4042589,39.5012186,Dayton
14183,2016-02-11,18:05:00,2307 Superior Ave Middletown OH 45044,-84.384595,39.509757,Dayton
14185,2016-03-02,16:55:00,2071 Lamberton St Middletown OH 45044,-84.3703924,39.4926417,Dayton
14186,2016-03-03,10:55:00,4500 HANNAH DRIVE MIDDLETOWN OH 45044,-84.351342,39.507732,Dayton
14187,2016-04-01,01:20:00,2110 S Breiel Blvd Middletown OH 45044,-84.3539693,39.4907588,Dayton
14188,2016-07-08,11:10:00,1626 Lamberton Dr Middletown OH 45044,-84.3708972,39.4977658,Dayton
14189,2016-04-14,17:00:00,3919 BONITA DR MIDDLETOWN OH 45044,-84.3643212,39.4959909,Dayton
14190,2016-06-07,18:55:00,3200-3232 Plymouth Street Middletown OH 45044,-84.3741551,39.4927081,Dayton
14191,2016-04-25,21:05:00,2206 WILBRAHAM RD Middletown OH 45044,-84.387548,39.528464,Dayton
14192,2016-04-29,08:05:00,1420 VILLA CT MIDDLETOWN OH 45044,-84.362182,39.498885,Dayton
14193,2016-05-24,16:35:00,3121 Andrew St Middletown OH 45044,-84.399955,39.480626,Dayton
14194,2016-05-05,19:00:00,370 Bavarian St Middletown OH 45044,-84.3351547,39.5060616,Dayton
14195,2016-06-21,20:10:00,3125 TOWNE BLVD MIDDLETOWN OH 45044,-84.3319206,39.4901201,Dayton
14196,2016-06-29,05:55:00,1910 Woodlawn Ave Middletown OH 45044,-84.391387,39.506427,Dayton
14197,2016-07-01,01:15:00,612 Stanley St MIDDLETOWN OH 45044,-84.3829303,39.5056111,Dayton
14198,2016-07-11,17:10:00,1209 Calumet Ave Middletown OH 45044,-84.403152,39.5036739,Dayton
14199,2016-07-08,09:54:00,600 LAFAYETTE AVE MIDDLETOWN OH 45044,-84.4163709,39.4939367,Dayton
14200,2016-07-13,10:35:00,3608 VILLAGE DR MIDDLETOWN OH 45044,-84.326088,39.4962865,Dayton
14201,2016-07-13,13:55:00,"39.515238,-84.400230 1340 Central Ave Middletown OH 45044",-84.400166,39.514954,Dayton
14202,2016-07-20,04:00:00,1626 LAMBERTON ST MIDDLETOWN OH 45044,-84.3708972,39.4977658,Dayton
14203,2016-07-21,10:25:00,613 STANLEY STREET MIDDLETOWN OH 45044,-84.382339,39.505571,Dayton
14204,2016-07-21,19:00:00,2799 Audubon Dr Middletown OH 45044,-84.337395,39.485475,Dayton
14205,2016-08-08,23:45:00,6610 WASHINGTON CR Middletown OH 45044,-84.331236,39.502154,Dayton
14206,2016-08-03,20:55:00,401 Baltimore St Middletown OH 45044,-84.3985299,39.509652,Dayton
14207,2016-09-14,17:10:00,2100 HOWARD AVE MIDDLETOWN OH 45044,-84.38793,39.509791,Dayton
14208,2016-08-09,23:40:00,513 GIDEON RD MIDDLETOWN OH 45044,-84.356273,39.504925,Dayton
14209,2016-08-25,01:40:00,1312 COLUMBIA AVE Middletown OH 45044,-84.3987617,39.5179194,Dayton
14210,2016-08-21,19:15:00,1608 Jackson Lane Middletown OH 45044,-84.369056,39.497942,Dayton
14211,2016-08-21,10:45:00,2215 JACKSON LANE Middletown OH 45044,-84.368376,39.490699,Dayton
14212,2016-08-30,00:00:00,219 LYLBURN RD Middletown OH 45044,-84.3608086,39.5076387,Dayton
14213,2016-09-06,18:35:00,2105 E GREENFIELD DR MIDDLETOWN OH 45044,-84.3624846,39.4912076,Dayton
14214,2016-09-03,01:40:00,908 8TH AVE MIDDLETOWN OH 45044,-84.409458,39.507881,Dayton
14215,2016-09-08,01:35:00,640 ETHEL CT MIDDLETOWN OH 45044,-84.4181525,39.4929211,Dayton
14216,2016-09-07,03:40:00,616 7th Ave MIDDLETOWN OH 45044,-84.413566,39.509517,Dayton
14217,2016-09-08,04:15:00,416 WEAVER ST MIDDLETOWN OH 45044,-84.4190837,39.4959244,Dayton
14219,2016-09-08,04:55:00,1302 EATON AVENUE MIDDLETOWN OH 45044,-84.360548,39.500276,Dayton
14221,2016-09-28,23:20:00,3305 ROOSEVELT BLVD Middletown OH 45044,-84.37022,39.500319,Dayton
14222,2016-09-14,14:00:00,2217 QUEEN AVE MIDDLETOWN OH 45044,-84.386281,39.504449,Dayton
14223,2016-09-28,03:00:00,1123 Kunz Ave Middletown OH 45044,-84.4040541,39.500592,Dayton
14224,2016-09-27,14:45:00,4715 LEFFERSON RD MIDDLETOWN OH 45044,-84.3465949,39.489896,Dayton
14225,2016-09-23,23:50:00,1107 14th Ave Middletown OH 45044,-84.405036,39.50171,Dayton
14226,2016-10-01,01:45:00,1920 ARLINGTON AVENUE MIDDLETOWN OH 45044,-84.3904319,39.5105293,Dayton
14227,2016-10-10,20:15:00,313 CRAWFORD ST MIDDLETOWN OH 45044,-84.39157,39.509662,Dayton
14228,2016-11-23,03:30:00,1309 Fairmount Ave Middletown OH 45044,-84.401863,39.509106,Dayton
14229,2016-10-10,23:30:00,3708 LEWIS ST MIDDLETOWN OH 45044,-84.3650317,39.5011583,Dayton
14230,2016-10-10,18:25:00,708 20TH AVE MIDDLETOWN OH 45044,-84.4141329,39.4949817,Dayton
14231,2016-10-18,20:15:00,1105 GIRARD AVE MIDDLETOWN OH 45044,-84.405501,39.512126,Dayton
14232,2016-10-22,22:40:00,2404 CHRISTEL MIDDLETOWN OH 45044,-84.3841825,39.5084072,Dayton
14233,2016-10-31,23:35:00,LINDEN AVE Middletown OH 45044,-84.3882269,39.5116093,Dayton
14234,2016-10-31,04:10:00,1603 PARK DR Middletown OH 45044,-84.375887,39.4984309,Dayton
14235,2016-10-31,02:35:00,2017 QUEEN AVE Middletown OH 45044,-84.38959,39.504637,Dayton
14236,2016-11-03,07:45:00,660 Lafayette Ave MIDDLETOWN OH 45044,-84.415724,39.49281,Dayton
14237,2016-12-08,21:30:00,5004 WOODRIDGE DR APT D MIDDLETOWN OH 45044,-84.3406056,39.4966979,Dayton
14238,2016-12-02,17:25:00,1808 HIGHLAND ST MIDDLETOWN OH 45044,-84.381769,39.496388,Dayton
14239,2016-12-01,02:55:00,4030 HELTON DRIVE MIDDLETOWN OH 45044,-84.3615915,39.4972439,Dayton
14240,2016-12-01,05:30:00,2110 S Breiel Blvd Apt F Middletown OH 45044,-84.3539693,39.4907588,Dayton
14241,2016-11-25,22:00:00,2103 QUEEN AVE MIDDLETOWN OH 45044,-84.388654,39.504585,Dayton
14242,2016-11-30,13:30:00,1721 PARK DR MIDDLETOWN OH 45044,-84.3763454,39.4971093,Dayton
14243,2016-12-06,00:17:00,1103 KUNZ AVENUE MIDDLETOWN OH 45044,-84.405454,39.500749,Dayton
14244,2016-12-28,18:15:00,81 Oxford State Rd Middletown OH 45044,-84.4325999,39.4811173,Dayton
14245,2016-12-15,02:36:00,63 Marshall Rd S Middletown OH 45044,-84.3451408,39.5098453,Dayton
14246,2016-12-12,23:15:00,333 Oxford State Rd Lot 38 Middletown OH 45044,-84.424442,39.481594,Dayton
14247,2016-12-30,22:30:00,1845 SPRING GROVE LN MIDDLETOWN OH 45044,-84.3594997,39.4940039,Dayton
14248,2016-12-29,01:25:00,4904 WOODRIDGE DRIVE MIDDLETOWN OH 45044,-84.3407581,39.4965186,Dayton
14249,2016-07-11,20:45:00,1507 WOODARD ST SPRINGFIELD OH 45044,-83.81327,39.907494,Dayton
14250,2016-07-02,18:45:00,256 Sands Ave Monroe OH 45050,-84.370773,39.437558,Dayton
14251,2016-01-29,14:05:00,535 N Sands Ave Monroe OH 45050,-84.36917,39.454505,Dayton
14252,2016-02-19,09:15:00,295 COURTLAND DR MONROE OH 45050,-84.3574321,39.4441882,Dayton
14253,2016-05-12,17:50:00,668 Britton Ln Monroe OH 45050,-84.365131,39.454825,Dayton
14254,2016-06-07,21:50:00,20 OLD ST MONROE OH 45050,-84.360738,39.443288,Dayton
14256,2016-07-23,19:45:00,48 East Ave Monroe OH 45050,-84.3596419,39.442455,Dayton
14257,2016-07-27,16:40:00,901 PREMIUM OUTLETS DR MONROE OH 45050,-84.337654,39.43417,Dayton
14258,2016-09-01,12:15:00,1000 PREMIUM OUTLETS DR MONROE OH 45050,-84.3364285,39.4336551,Dayton
14259,2016-09-01,15:00:00,428 PRIMIUM OUTLETS DR MONROE OH 45050,-84.337649,39.4348065,Dayton
14261,2016-09-01,14:10:00,350 S PIONEER BLVD SPRINGBORO OH 45050,-84.258927,39.549968,Dayton
14281,2016-11-16,22:25:00,275 N MOUND ST SOMERVILLE OH 45064,-84.640829,39.565869,Dayton
14289,2016-04-20,05:20:00,Springboro Woods DR Springboro OH 45066,-84.253824,39.5647019,Dayton
14290,2016-01-28,19:05:00,35 King Cir Springboro OH 45066,-84.2362069,39.554049,Dayton
14291,2016-02-22,23:05:00,11 Shady Pines Ave Springboro OH 45066,-84.2075228,39.5818778,Dayton
14292,2016-02-24,13:40:00,"350 S Pioneer Blvd 39.549652,-84.257898 Springboro OH 45066",-84.258927,39.549968,Dayton
14293,2016-03-11,12:30:00,155 East St Springboro OH 45066,-84.2321283,39.5544084,Dayton
14294,2016-03-22,12:10:00,45 Maple Dr Springboro OH 45066,-84.242056,39.556402,Dayton
14295,2016-04-06,15:30:00,145 Cambridge Dr Springboro OH 45066,-84.222116,39.543334,Dayton
14296,2016-04-26,03:40:00,30 Duncan Ct Springboro OH 45066,-84.239136,39.554981,Dayton
14297,2016-05-03,08:45:00,185 Woods Rd Springboro OH 45066,-84.239247,39.552916,Dayton
14298,2016-05-09,13:35:00,30 King Cir Springboro OH 45066,-84.235699,39.55399,Dayton
14299,2016-05-19,06:35:00,8885 CLEARCREEK FRANKLIN RD SPRINGBORO OH 45066,-84.25201,39.571913,Dayton
14300,2016-06-09,20:30:00,135 Heston Dr Springboro OH 45066,-84.23666,39.564168,Dayton
14301,2016-06-16,02:50:00,415 Gilpin DR Springboro OH 45066,-84.2355156,39.552269,Dayton
14302,2016-06-22,03:50:00,175 W FACTORY RD SPRINGBORO OH 45066,-84.237346,39.552263,Dayton
14303,2016-06-24,20:55:00,45 Antrim Dells Springboro OH 45066,-84.211236,39.570626,Dayton
14304,2016-08-04,14:40:00,355 S PIONEER BLVD SPRINGBORO OH 45066,-84.25524,39.5498679,Dayton
14305,2016-08-28,03:45:00,30 WEST PUGH DR SPRINGBORO OH 45066,-84.21493,39.58605,Dayton
14306,2016-09-01,14:55:00,376 S PIONEER BLVD SPRINGBORO OH 45066,-84.2568939,39.5494718,Dayton
14307,2016-09-23,01:55:00,105 SESAME ST SPRINGBORO OH 45066,-84.2376367,39.5626641,Dayton
14308,2016-10-20,01:40:00,150 KESLING SPRINGBORO OH 45066,-84.242303,39.554047,Dayton
14309,2016-10-11,07:15:00,35 CORRAL CT SPRINGBORO OH 45066,-84.218409,39.546005,Dayton
14310,2016-10-28,17:45:00,45 DEVON CT SPRINGBORO OH 45066,-84.233412,39.5320279,Dayton
14311,2016-11-14,22:35:00,84 CHERRY ST SPRINGBORO OH 45066,-84.228787,39.556843,Dayton
14312,2016-11-18,05:34:00,6528 STATE ROUTE 48 SPRINGBORO OH 45066,-84.175447,39.530238,Dayton
14313,2016-11-29,03:05:00,15 JACAMAR CT SPRINGBORO OH 45066,-84.244337,39.563737,Dayton
14314,2016-12-03,23:37:00,8991 EVAN COURT SPRINGBORO OH 45066,-84.17925,39.56773,Dayton
14315,2016-12-09,02:10:00,35*65 WEST SOUTH ST SPRINGBORO OH 45066,-84.235378,39.5510779,Dayton
14316,2016-01-18,19:55:00,423 Cranewood Dr Trenton OH 45067,-84.467344,39.488813,Dayton
14317,2016-01-11,17:20:00,616 Brelsford Ave Trenton OH 45067,-84.465603,39.495246,Dayton
14318,2016-01-15,21:55:00,413 Mars Dr Trenton OH 45067,-84.449589,39.471532,Dayton
14319,2016-01-20,18:55:00,703 W Aberdeen Dr Trenton OH 45067,-84.470636,39.494437,Dayton
14320,2016-02-23,18:14:00,907 Charles St Trenton OH 45067,-84.4604279,39.46929,Dayton
14321,2016-03-10,23:40:00,274 W Aberdeen Dr Trenton OH 45067,-84.46215,39.492792,Dayton
14322,2016-05-04,04:25:00,651 Oak Forge Pl Trenton OH 45067,-84.47964,39.4735159,Dayton
14323,2016-06-23,09:20:00,400 Edgewood Dr Trenton OH 45067,-84.471591,39.476917,Dayton
14324,2016-07-01,20:30:00,384 Elk Creek Dr Trenton OH 45067,-84.462672,39.467382,Dayton
14325,2016-06-29,00:35:00,703 W Aberdeen Dr Trenton OH 45067,-84.470636,39.494437,Dayton
14326,2016-07-29,00:00:00,106 Trenton Pl Trenton OH 45067,-84.447361,39.480194,Dayton
14327,2016-09-08,02:00:00,421 3RD ST Trenton OH 45067,-84.4520524,39.4763928,Dayton
14328,2016-09-08,19:45:00,915 ARTHUR ST TRENTON OH 45067,-84.4591517,39.4684291,Dayton
14329,2016-09-15,05:30:00,458 Peyton Dr Trenton OH 45067,-84.4534782,39.482535,Dayton
14330,2016-12-16,02:50:00,309 SYCAMORE RD APT 1 TRENTON OH 45067,-84.4525466,39.472536,Dayton
14331,2016-12-28,20:40:00,322 E HOME AVE TRENTON OH 45067,-84.4523747,39.4774304,Dayton
14332,2016-01-25,17:00:00,5733 Spartan Hill Ln Waynesville OH 45068,-84.0823486,39.5491606,Dayton
14333,2016-05-03,20:05:00,5115 O Neall Rd Waynesville OH 45068,-84.083112,39.505449,Dayton
14334,2016-05-26,21:55:00,125 E ELLIS DR WAYNESVILLE OH 45068,-84.095703,39.537657,Dayton
14335,2016-07-12,20:05:00,9280 Lytle Ferry Rd Waynesville OH 45068,-84.116139,39.571181,Dayton
14336,2016-07-31,23:15:00,9500 Collett Rd Waynesville OH 45068,-84.014678,39.564075,Dayton
14337,2016-09-13,15:50:00,124 W ELLIS DR Waynesville OH 45068,-84.096205,39.537991,Dayton
14338,2016-09-24,08:05:00,4991 O NEALL RD WAYNESVILLE OH 45068,-84.080947,39.504039,Dayton
14339,2016-10-05,21:35:00,6425 SUNRIDGE DR WAYNESVILLE OH 45068,-84.0652899,39.5232873,Dayton
14340,2016-10-30,17:57:00,5556 FAIRFIELD DRIVE WAYNESVILLE OH 45068,-84.09208,39.51363,Dayton
14341,2016-11-17,23:05:00,7576 OH-48 WAYNESVILLE OH 45068,-84.1651818,39.546691,Dayton
14468,2016-03-06,12:25:00,1056 Macedonia Rd Blanchester OH 45107,-83.87841,39.334161,Dayton
14470,2016-09-01,15:05:00,1074 REEDER RD BLANCHESTER OH 45107,-83.92573,39.350912,Dayton
14477,2016-05-09,20:00:00,10238 OLD ST RT 3 Clarksville OH 45113,-83.9273789,39.3823645,Dayton
14478,2016-08-30,17:35:00,620 STATE ROUTE 132 CLARKSVILLE OH 45113,-83.9876899,39.3946907,Dayton
14524,2016-02-04,12:10:00,1480 N High St Hillsboro OH 45133,-83.6102532,39.2305657,Dayton
14526,2016-03-06,18:30:00,123 Sherwood Dr Hillsboro OH 45133,-83.612394,39.224653,Dayton
14527,2016-03-13,18:04:00,9826 Collins Ln Hillsboro OH 45133,-83.6857311,39.2785388,Dayton
14537,2016-11-19,17:05:00,7973 HIGHTOP RD Hillsboro OH 45133,-83.596057,39.283654,Dayton
14540,2016-03-24,16:15:00,11785 Careytown Rd Hglnd County OH 45135,-83.631829,39.333766,Dayton
14541,2016-03-12,18:35:00,24 E MAIN ST LEESBURG OH 45135,-83.55485,39.345784,Dayton
14542,2016-04-10,20:50:00,10017 Old Us Highway 62 Leesburg OH 45135,-83.587069,39.286248,Dayton
14543,2016-08-09,06:25:00,741 HAMILTON RD LEESBURG OH 45135,-83.6118751,39.3767458,Dayton
14586,2016-03-13,16:25:00,14800 State Route 134 Lynchburg OH 45142,-83.784056,39.264793,Dayton
14592,2016-09-28,17:20:00,1327 RAPID FORD RD MARTINSVILLE OH 45146,-83.772147,39.314796,Dayton
14593,2016-09-14,23:15:00,1617 MUDSWITCH ROAD MARTINSVILLE OH 45146,-83.807638,39.294457,Dayton
14595,2016-10-16,16:50:00,105 MAIN ST Midland OH 45148,-83.9097309,39.305311,Dayton
14599,2016-02-11,00:30:00,153 WEST WARREN ST GERMANTOWN OH 45150,-84.37318,39.62681,Dayton
14644,2016-03-23,18:40:00,3610 Trovillo Rd Morrow OH 45152,-84.157573,39.379747,Dayton
14648,2016-06-10,00:35:00,3707 HALLS CREEK ROAD Morrow OH 45152,-84.14219,39.372047,Dayton
14684,2016-02-24,13:55:00,68 BAKER DR NEW VIENNA OH 45159,-83.691438,39.321592,Dayton
14685,2016-09-15,18:35:00,10920 STATE ROUTE 73 NEW VIENNA OH 45159,-83.7201419,39.3514549,Dayton
14693,2016-03-10,14:05:00,73 Stockton Ave Sabina OH 45169,-83.631285,39.489895,Dayton
14694,2016-07-25,23:30:00,92 Rolfe Dr Sabina OH 45169,-83.628708,39.49106,Dayton
14695,2016-08-30,23:25:00,331 SOUTH HOWARD * Sabina OH 45169,-83.635287,39.484052,Dayton
14696,2016-11-06,23:50:00,345 S HOWARD ST SABINA OH 45169,-83.636143,39.483148,Dayton
14697,2016-11-22,14:05:00,1 Solution Ave Sabina OH 45169,-83.6379413,39.4912379,Dayton
14714,2016-01-15,14:40:00,48 Michigan Ave Wilmington OH 45177,-83.828522,39.457672,Dayton
14715,2016-02-17,11:40:00,800 Center St Wilmington OH 45177,-83.81484,39.4458329,Dayton
14716,2016-02-17,16:00:00,301 Doan St Wilmington OH 45177,-83.823774,39.440093,Dayton
14717,2016-02-17,16:50:00,5938 ST RTE 730 WILMINGTON OH 45177,-83.9146336,39.4003021,Dayton
14718,2016-04-05,11:05:00,2627 South US Hwy 68 WILMINGTON OH 45177,-83.8419596,39.4131226,Dayton
14719,2016-04-22,14:10:00,531 E Locust St Wilmington OH 45177,-83.81932,39.446564,Dayton
14720,2016-05-10,18:45:00,1256 Clement Rd Wilmington OH 45177,-83.679357,39.4265339,Dayton
14721,2016-05-26,04:15:00,305 Curtis Dr Wilmington OH 45177,-83.822348,39.456863,Dayton
14722,2016-06-01,01:45:00,443 Clinton St Wilmington OH 45177,-83.836117,39.45015,Dayton
14723,2016-06-01,01:50:00,443 Clinton St Wilmington OH 45177,-83.836117,39.45015,Dayton
14724,2016-06-27,17:05:00,1310 Westmoor Dr Wilmington OH 45177,-83.849382,39.434218,Dayton
14725,2016-06-24,14:15:00,1645 Davids Dr Wilmington OH 45177,-83.8158903,39.4193479,Dayton
14726,2016-07-07,00:55:00,33 W Sugartree St Wilmington OH 45177,-83.8292309,39.4444469,Dayton
14727,2016-07-27,14:45:00,808 CENTER ST WILMINGTON OH 45177,-83.814555,39.4456149,Dayton
14728,2016-08-11,00:05:00,"PO BOX 162, 246 SOUTHWIND BLVD WILMINGTON OH 45177",-83.846484,39.41677,Dayton
14729,2016-09-05,21:55:00,231 S SOUTH STREET WILMINGTON OH 45177,-83.82929,39.4423,Dayton
14730,2016-09-12,16:55:00,948 KATHRYN DR WILMINGTON OH 45177,-83.81765,39.456316,Dayton
14731,2016-10-06,21:40:00,424 N Spring St Wilmington OH 45177,-83.830928,39.4514179,Dayton
14732,2016-10-08,00:15:00,137 Main St A Wilmington OH 45177,-83.830954,39.445832,Dayton
14733,2016-10-29,03:40:00,75 MITCHELL RD WILMINGTON OH 45177,-83.871971,39.446307,Dayton
14734,2016-11-07,20:40:00,75 MITCHELL RD WILMINGTON OH 45177,-83.871971,39.446307,Dayton
14735,2016-11-08,00:30:00,51 WOODVIEW DR WILMINGTON OH 45177,-83.8364903,39.4326726,Dayton
14736,2016-11-21,20:30:00,259 BURDEL DR DR WILMINGTON OH 45177,-83.835136,39.433644,Dayton
14737,2016-11-17,06:20:00,55 Jodie Ln WILMINGTON OH 45177,-83.8337699,39.4293014,Dayton
14738,2016-11-17,01:05:00,32 S MULLBERRY WILMINGTON OH 45177,-83.8301666,39.4450603,Dayton
14739,2016-11-17,02:35:00,352-364 Westfield Dr Wilmington OH 45177,-83.836842,39.434111,Dayton
14909,2016-09-01,01:25:00,1840 BROOKLINE DAYTON OH 45207,-84.1480745,39.7401029,Dayton
15481,2016-11-12,11:40:00,5056 LEXINGTON SALEM RD WEST ALEXANDRIA OH 45230,-84.53289,39.7598569,Dayton
15662,2016-11-04,12:35:00,404 COVENTRY PL FAIRBORN OH 45234,-84.015894,39.786612,Dayton
16025,2016-05-04,18:15:00,1713 WOODMAN DR DAYTON OH 45240,-84.1226162,39.7310982,Dayton
16351,2016-10-03,21:05:00,204 EMERALD CIR Anna OH 45302,-84.1753092,40.3918746,Dayton
16352,2016-04-15,04:30:00,BOLANDER AVE DAYTON OH 45302,-84.2015602,39.7417947,Dayton
16353,2016-03-24,19:30:00,9002 State Route 571 Arcanum OH 45304,-84.4698655,40.0363128,Dayton
16354,2016-01-29,08:10:00,210 Main St Gordon OH 45304,-84.5087422,39.931872,Dayton
16355,2016-03-31,20:05:00,210 Main St Gordon OH 45304,-84.5087422,39.931872,Dayton
16356,2016-08-26,19:15:00,208 MAIN ST GORDON OH 45304,-84.509111,39.932007,Dayton
16357,2016-02-19,14:30:00,1927 surrey trail Bellbrook OH 45305,-84.1036429,39.6406429,Dayton
16358,2016-02-08,01:35:00,4394 Knob Hill Dr Bellbrook OH 45305,-84.105079,39.6308019,Dayton
16359,2016-10-10,14:10:00,2303 MARCIA DR BELLBROOK OH 45305,-84.09039,39.629406,Dayton
16360,2016-11-01,10:45:00,1862 Surrey Trail Bellbrook OH 45305,-84.1038101,39.6411988,Dayton
16361,2016-10-29,21:40:00,4338 BAYBERRY COVE BELLBROOK OH 45305,-84.1047808,39.6400738,Dayton
16362,2016-11-09,22:45:00,4402 CHELSEA DR BELLBROOK OH 45305,-84.1065414,39.6359527,Dayton
16363,2016-12-27,20:20:00,1862 SURREY TR APT 10 Bellbrook OH 45305,-84.1038101,39.6411988,Dayton
16364,2016-12-30,00:30:00,4183 WHITES DRIVE BELLBROOK OH 45305,-84.096537,39.64302,Dayton
16365,2016-09-22,00:10:00,104 Buckingham Pl Botkins OH 45306,-84.1731429,40.4668589,Dayton
16366,2016-04-07,12:30:00,517 Stichter St Bradford OH 45308,-84.42522,40.125983,Dayton
16367,2016-07-27,14:55:00,116 Taylor St Bradford OH 45308,-84.4315419,40.134892,Dayton
16368,2016-01-21,20:30:00,8275 Upper Lewisburg Salem Rd Brookville OH 45309,-84.372734,39.847027,Dayton
16369,2016-05-05,16:50:00,133 Bayview Ave Brookville OH 45309,-84.415397,39.827603,Dayton
16370,2016-07-01,00:55:00,745 Albert Rd Brookville OH 45309,-84.407318,39.839771,Dayton
16371,2016-09-20,20:50:00,625 MARKET ST BROOKVILLE OH 45309,-84.410752,39.839319,Dayton
16372,2016-12-13,08:20:00,643 Hay AVENUE BROOKVILLE OH 45309,-84.407045,39.838802,Dayton
16373,2016-12-22,15:10:00,11052 PANSING RD BROOKVILLE OH 45309,-84.386955,39.906673,Dayton
16374,2016-01-31,16:30:00,7777 US 127 Camden OH 45311,-84.6496416,39.6403561,Dayton
16375,2016-01-21,15:35:00,536 Oxford Germantown Rd Camden OH 45311,-84.653212,39.570445,Dayton
16376,2016-01-14,20:00:00,8449 State Route 503 S Camden OH 45311,-84.543811,39.634858,Dayton
16377,2016-05-25,06:20:00,669 Mcguire Dr Camden OH 45311,-84.633331,39.6531301,Dayton
16378,2016-08-16,14:15:00,515 CAMDEN COLLEGE CORNE CAMDEN OH 45311,-84.659555,39.6191389,Dayton
16379,2016-10-05,17:30:00,LOT 14 SHAWNEE PLAINS CT CAMDEN OH 45311,-84.6445594,39.6334555,Dayton
16380,2016-10-26,17:40:00,7777 Us Route 127 Camden OH 45311,-84.6496416,39.6403561,Dayton
16381,2016-11-09,13:25:00,634 McGuire Dr Camden OH 45311,-84.631437,39.654533,Dayton
16382,2016-11-18,19:35:00,1910 SOMERS GRATIS RD Camden OH 45311,-84.619062,39.62523,Dayton
16383,2016-12-14,19:50:00,1619 BARNETTS MILL RD Camden OH 45311,-84.6159821,39.6566544,Dayton
16384,2016-10-11,14:00:00,103 N MAIN ST CASSTOWN OH 45312,-84.1295559,40.0534507,Dayton
16385,2016-04-14,22:50:00,701 Union Rd Clayton OH 45315,-84.3140706,39.8670453,Dayton
16386,2016-03-28,11:25:00,7704 Hoke Rd Englewood OH 45315,-84.3305106,39.8569362,Dayton
16387,2016-10-28,00:40:00,503 WINTERGREEN PL ENGLEWOOD OH 45315,-84.322503,39.834131,Dayton
16388,2016-02-01,23:33:00,413 WADSWORTH ST EATON OH 45320,-84.6309691,39.7423418,Dayton
16389,2016-02-09,15:09:00,975 FRANKLIN ST EATON OH 45320,-84.6247407,39.7317166,Dayton
16390,2016-02-22,23:10:00,530 Walnut St Eaton OH 45320,-84.6395927,39.7499573,Dayton
16391,2016-03-16,16:55:00,330 Mccabe St Eaton OH 45320,-84.6314463,39.7489804,Dayton
16392,2016-03-31,17:35:00,205 Deem St Eaton OH 45320,-84.638638,39.748823,Dayton
16393,2016-04-16,22:00:00,3073 Camden Sugar Valley Rd Eaton OH 45320,-84.713375,39.691122,Dayton
16394,2016-06-07,23:40:00,725 N BEECH ST EATON OH 45320,-84.6391397,39.7521505,Dayton
16395,2016-06-27,23:00:00,512 N Cherry St Eaton OH 45320,-84.6345475,39.7493019,Dayton
16396,2016-07-19,21:35:00,224 E Somers St Eaton OH 45320,-84.6335409,39.7455026,Dayton
16397,2016-08-12,17:05:00,837 Redwood Dr Eaton OH 45320,-84.630512,39.733734,Dayton
16398,2016-11-22,16:05:00,1219 US-35 Eaton OH 45320,-84.659681,39.754586,Dayton
16399,2016-09-18,12:30:00,31 DRAGON DR EATON OH 45320,-84.691935,39.686494,Dayton
16400,2016-10-14,21:20:00,412 CHESTNUT DR EATON OH 45320,-84.6282472,39.7328129,Dayton
16401,2016-10-07,15:35:00,975 S FRANKLIN STREET EATON OH 45320,-84.6247407,39.7317166,Dayton
16402,2016-10-12,04:35:00,132 S STATELINE RD EATON OH 45320,-84.8143711,39.7419616,Dayton
16403,2016-11-03,14:20:00,837 Ashtree Dr Eaton OH 45320,-84.632428,39.733675,Dayton
16404,2016-11-02,19:05:00,528 LAKENGREN DR EATON OH 45320,-84.692386,39.704764,Dayton
16405,2016-11-23,00:05:00,4282 W FLORENCE CAMPBELLSTOWN RD Eaton OH 45320,-84.755587,39.8043679,Dayton
16407,2016-05-27,12:15:00,270 Frederick St Eldorado OH 45321,-84.6713224,39.9047057,Dayton
16408,2016-04-27,07:00:00,2401 N Main St ENGLEWOOD OH 45322,-84.2774162,39.8567117,Dayton
16409,2016-05-10,00:00:00,6996 Taywood Rd Englewood OH 45322,-84.291928,39.846713,Dayton
16410,2016-05-10,15:05:00,1128 S Main St Englewood OH 45322,-84.2820975,39.8615584,Dayton
16411,2016-05-31,20:15:00,110 Zinfandel Dr Englewood OH 45322,-84.31683,39.916422,Dayton
16412,2016-07-11,15:10:00,899 S Main St Englewood OH 45322,-84.2871679,39.863414,Dayton
16413,2016-07-27,03:00:00,117 Zinfandel Dr Englewood OH 45322,-84.317606,39.916902,Dayton
16414,2016-09-15,15:05:00,111 HAVENWOOD DR ENGLEWOOD OH 45322,-84.305896,39.858065,Dayton
16415,2016-09-19,12:15:00,4325 SARAH DR ENGLEWOOD OH 45322,-84.308788,39.853924,Dayton
16416,2016-09-21,14:30:00,9629 FREDRICK GARLAND RD ENGLEWOOD OH 45322,-84.381512,39.938381,Dayton
16417,2016-09-29,18:50:00,:6943 MICHELLE PL Englewood OH 45322,-84.294534,39.847036,Dayton
16418,2016-09-30,11:45:00,104 MCCRAW DR ENGLEWOOD OH 45322,-84.3186853,39.8991068,Dayton
16419,2016-10-31,23:45:00,5 WALNUT ENGLEWOOD OH 45322,-84.3035,39.877161,Dayton
16420,2016-11-21,15:45:00,375 Union BLVD Englewood OH 45322,-84.3115293,39.8717685,Dayton
16421,2016-11-08,03:15:00,550 UNGER AVE ENGLEWOOD OH 45322,-84.3085616,39.8674299,Dayton
16422,2016-11-27,23:20:00,717 W MARTINDALE ENGLEWOOD OH 45322,-84.328706,39.897013,Dayton
16423,2016-05-13,00:50:00,6919 MICHELLE PLACE ENGLWOOD OH 45322,-84.294515,39.84613,Dayton
16424,2016-02-26,15:25:00,111 Danvers Farm Cir Union OH 45322,-84.318314,39.909194,Dayton
16425,2016-03-04,21:20:00,100 WALDEN FARM CIRCLE UNION OH 45322,-84.3085188,39.9120418,Dayton
16426,2016-08-04,18:20:00,1800 UNION AIRPARK BLVD UNION OH 45322,-84.257727,39.9043023,Dayton
16427,2016-10-24,02:15:00,150 LEXINGTON FARM ROAD UNION OH 45322,-84.3133579,39.911081,Dayton
16428,2016-05-28,14:50:00,42 Fay Dr Enon OH 45323,-83.9333319,39.881932,Dayton
16429,2016-09-12,00:55:00,800 HUNTER RD ENON OH 45323,-83.9377,39.858418,Dayton
16430,2016-11-07,23:40:00,6842 EMERALD AVE ENON OH 45323,-83.9436435,39.872973,Dayton
16431,2016-11-21,20:25:00,7091 CHAMA TR ENON OH 45323,-83.948633,39.8692769,Dayton
16432,2016-05-03,12:40:00,6838 Ginger Ave Green Meadows OH 45323,-83.9441211,39.865405,Dayton
16433,2016-05-24,12:50:00,1863 Cedar Village Ct Beavercreek OH 45324,-84.032572,39.7915401,Dayton
16434,2016-07-18,20:50:00,3979 COLONEL GLENN HWY BEAVERCREEK OH 45324,-84.0786057,39.7744606,Dayton
16435,2016-07-22,04:35:00,1858 Wilbur Ave Beavercreek OH 45324,-84.038864,39.792277,Dayton
16436,2016-07-25,23:30:00,147 Fig St Beavercreek OH 45324,-84.0249089,39.805326,Dayton
16437,2016-09-21,00:00:00,1472 BLAKE CT BEAVERCREEK OH 45324,-83.986631,39.777777,Dayton
16438,2016-09-21,00:00:00,1472 BLAKE CT BEAVERCREEK OH 45324,-83.986631,39.777777,Dayton
16439,2016-11-09,04:15:00,2219 Zink Rd BEAVERCREEK OH 45324,-84.0720569,39.784181,Dayton
16440,2016-01-11,12:10:00,7136 BRANDT PIKE DAYTON OH 45324,-84.1068996,39.8566162,Dayton
16441,2016-05-12,10:50:00,8051 CENTER POINTE 70 DAYTON OH 45324,-84.0635208,39.8709116,Dayton
16442,2016-08-04,20:30:00,4490 BRANDT PIKE DAYTON OH 45324,-84.1260203,39.8168559,Dayton
16443,2016-09-07,15:00:00,217 Santa Clara Dayton OH 45324,-84.213853,39.781171,Dayton
16444,2016-09-29,22:05:00,1588  STEWART FAIRBONR OH 45324,-84.0376149,39.7970902,Dayton
16445,2016-09-23,01:50:00,308 Franklin Ct FAIRBOR OH 45324,-84.0189404,39.7849899,Dayton
16446,2016-01-05,16:58:00,3419 CLOVERRIDGE COURT FAIRBORN OH 45324,-84.0671991,39.7896997,Dayton
16447,2016-01-15,16:50:00,1239 SPRINGWOOD LANE FAIRBORN OH 45324,-84.0655907,39.7866138,Dayton
16448,2016-01-19,19:15:00,3640 COL GLENN HWY FAIRBORN OH 45324,-84.064099,39.781523,Dayton
16449,2016-01-28,08:30:00,588 Winona Dr Fairborn OH 45324,-84.01112,39.780627,Dayton
16450,2016-02-08,12:15:00,2090 ZINK RD FAIRBORN OH 45324,-84.066423,39.787257,Dayton
16451,2016-02-16,20:20:00,1804 MONTGOMERY FAIRBORN OH 45324,-84.0399646,39.7939362,Dayton
16452,2016-02-24,00:30:00,1112 Columbia Ave Fairborn OH 45324,-84.021309,39.807938,Dayton
16453,2016-03-17,13:50:00,2440 FAIRFIELD RD FAIRBORN OH 45324,-83.9798645,39.823649,Dayton
16454,2016-03-22,01:25:00,262 Orville St Fairborn OH 45324,-84.0345126,39.7917072,Dayton
16455,2016-03-18,16:14:00,1220 E DAYTON YELLOW SPRINGS RD FAIRBORN OH 45324,-84.0032711,39.7830456,Dayton
16456,2016-03-28,13:00:00,243 Corey Ct Fairborn OH 45324,-84.0192697,39.7858819,Dayton
16457,2016-04-11,13:45:00,2070 ZINK RD FAIRBORN OH 45324,-84.0671585,39.7878407,Dayton
16458,2016-04-25,18:50:00,302 Clover St Fairborn OH 45324,-84.025071,39.8203729,Dayton
16459,2016-05-31,23:35:00,3441 Province St Fairborn OH 45324,-84.0671887,39.7902507,Dayton
16460,2016-05-09,12:10:00,159 W FUNDERBURG RD FAIRBORN OH 45324,-84.031574,39.791158,Dayton
16461,2016-06-08,02:15:00,1750 LOWELL DR FAIRBORN OH 45324,-84.034193,39.7936679,Dayton
16462,2016-06-07,01:45:00,78 Old Yellow Springs Rd FAIRBORN OH 45324,-84.02452,39.783677,Dayton
16463,2016-06-20,23:05:00,335 Mann Ave Fairborn OH 45324,-84.014724,39.823574,Dayton
16464,2016-06-17,05:30:00,2800 Presidential Dr FAIRBORN OH 45324,-84.0575805,39.7761926,Dayton
16465,2016-06-30,12:00:00,1272 APPLE ST FAIRBORN OH 45324,-84.020621,39.8040189,Dayton
16466,2016-07-01,16:55:00,102 Mann Ave Fairborn OH 45324,-84.019355,39.824306,Dayton
16467,2016-07-06,11:55:00,3419 CLOVERIDGE CT Fairborn OH 45324,-84.0671991,39.7896997,Dayton
16468,2016-07-07,15:45:00,UNIVERSITY BLVD FAIRBORN OH 45324,-84.059508,39.7851375,Dayton
16469,2016-07-10,11:10:00,304 PROVINCE FAIRBORN OH 45324,-84.0707517,39.7749925,Dayton
16470,2016-08-02,10:15:00,2964 THEMMES CT FAIRBORN OH 45324,-84.0779632,39.7779726,Dayton
16471,2016-08-10,23:35:00,729 CHAPELGATE DR FAIRBORN OH 45324,-84.0084381,39.8128817,Dayton
16472,2016-08-11,05:00:00,1850 WOODVINE STREET FAIRBORN OH 45324,-84.0316833,39.7908411,Dayton
16473,2016-08-18,02:10:00,223 Orville St FAIRBORN OH 45324,-84.033334,39.7923053,Dayton
16474,2016-08-18,15:35:00,"39.796641, -84.031859 Fairborn OH 45324",-84.0228604,39.8175612,Dayton
16475,2016-08-22,11:45:00,ParkHill Shopping Center Fairborn OH 45324,-84.0230211,39.7919508,Dayton
16476,2016-08-22,15:40:00,1140  N BROAD ST FAIRBORN OH 45324,-84.013372,39.833504,Dayton
16477,2016-08-22,23:00:00,5736 RAIDER RD FAIRBORN OH 45324,-84.0532086,39.7833791,Dayton
16478,2016-08-22,22:35:00,5736 RAIDER BLVD FAIRBORN OH 45324,-84.0532086,39.7833791,Dayton
16479,2016-09-08,23:40:00,1809 NORTH FAIRBORN OH 45324,-84.041459,39.7939999,Dayton
16480,2016-09-11,23:15:00,841 S MAPLE FAIRBORN OH 45324,-84.019367,39.812359,Dayton
16481,2016-09-27,01:40:00,321 W Dayton Yellow Springs 130 Fairborn OH 45324,-84.0328728,39.7966568,Dayton
16482,2016-09-30,00:10:00,1482 KAUFFMAN AVE FAIRBORN OH 45324,-84.0355638,39.8015532,Dayton
16483,2016-09-30,01:55:00,3419 CLOVERRIDGE CT FAIRBORN OH 45324,-84.0671991,39.7896997,Dayton
16484,2016-10-01,17:15:00,823 FLINTRIDGE FAIRBORN OH 45324,-84.013789,39.81294,Dayton
16485,2016-11-01,13:00:00,1255 SPANGLER RD FAIRBORN OH 45324,-83.999535,39.8331222,Dayton
16486,2016-10-26,11:55:00,2200 KAUFFMAN AVE FAIRBORN OH 45324,-84.05252,39.7895899,Dayton
16487,2016-10-31,22:10:00,243 Corey Ct Apt C Fairborn OH 45324,-84.0192697,39.7858819,Dayton
16488,2016-10-31,15:05:00,1176 E DAYTON YELLOW SPRINGS RD FAIRBORN OH 45324,-83.9954841,39.783107,Dayton
16489,2016-11-01,14:50:00,2377 COMMERCE CENTER BLVD FAIRBORN OH 45324,-83.9987458,39.7756807,Dayton
16490,2016-11-02,00:10:00,2333 ROSEANN CT FAIRBORN OH 45324,-84.0057385,39.7791093,Dayton
16491,2016-11-09,23:35:00,2190 ROCKDELL FAIRBORN OH 45324,-84.0267458,39.7825453,Dayton
16492,2016-11-14,14:50:00,602 WILEY FAIRBORN OH 45324,-84.0319541,39.8047324,Dayton
16493,2016-11-21,02:30:00,354 FOREST ST FAIRBORN OH 45324,-84.0346413,39.7992165,Dayton
16494,2016-11-23,05:50:00,115 WAYNE AVE FAIRBORN OH 45324,-84.017455,39.831313,Dayton
16495,2016-11-29,22:24:00,145 GILBERT AVE FAIRBORN OH 45324,-84.028,39.801478,Dayton
16496,2016-12-05,22:50:00,24 E Hebble Ave Fairborn OH 45324,-84.019162,39.826669,Dayton
16497,2016-12-05,21:45:00,2321 DUNCAN DR FAIRBORN OH 45324,-84.0705944,39.781372,Dayton
16498,2016-12-14,16:45:00,1105 N Central Ave Fairborn OH 45324,-84.0197992,39.8340229,Dayton
16499,2016-12-15,01:55:00,2580 COLONEL GLENN FAIRBORN OH 45324,-84.052161,39.778685,Dayton
16500,2016-12-28,20:05:00,120 Pearl St Fairborn OH 45324,-84.019399,39.815188,Dayton
16501,2016-12-27,22:50:00,2280 LAGUANA CT FAIRBORN OH 45324,-83.9943173,39.777091,Dayton
16502,2016-10-26,15:00:00,20 S 1ST  ST FARIBORN OH 45324,-84.028577,39.8212819,Dayton
16503,2016-09-16,15:35:00,EXECUTIVE BLVD HUBER HEIGHTS OH 45324,-84.1182169,39.8700966,Dayton
16504,2016-11-01,21:05:00,8341 TROY PIKE HUBER HEIGHTS OH 45324,-84.1371505,39.8755752,Dayton
16505,2016-11-30,23:05:00,4428 SUE EILEEN CT HUBER HEIGHTS OH 45324,-84.143261,39.8350795,Dayton
16507,2016-03-10,21:20:00,42 Kathie Ct Germantown OH 45327,-84.348474,39.632985,Dayton
16508,2016-04-13,02:20:00,100 N CHERRY STREET GERMANTOWN OH 45327,-84.369093,39.6260708,Dayton
16509,2016-05-10,23:15:00,5 SOUTH CIRCLE DRIVE GERMANTOWN OH 45327,-84.372712,39.619948,Dayton
16510,2016-05-11,04:15:00,42 Kathie Ct Germantown OH 45327,-84.348474,39.632985,Dayton
16511,2016-06-21,21:55:00,8232 SOUTH BUTTER ST Germantown OH 45327,-84.3465919,39.6163765,Dayton
16512,2016-06-30,00:50:00,32 Pollyanna Ave Germantown OH 45327,-84.35979,39.62466,Dayton
16513,2016-07-15,19:15:00,10514 Astoria Rd Germantown OH 45327,-84.411946,39.591372,Dayton
16514,2016-10-11,18:30:00,8842 LOWER MIAMISBURG RD GERMANTOWN OH 45327,-84.344098,39.628105,Dayton
16515,2016-09-14,02:15:00,917 West Market St GERMANTOWN OH 45327,-84.382436,39.62279,Dayton
16516,2016-10-28,21:05:00,7 Hickory Pointe Dr Germantown OH 45327,-84.3557509,39.6386274,Dayton
16517,2016-11-10,05:25:00,299 WINDCLIFF DR Germantown OH 45327,-84.354473,39.626816,Dayton
16518,2016-11-15,23:10:00,41 S VIRGINIA AVE GERMANTOWN OH 45327,-84.378978,39.623114,Dayton
16519,2016-11-22,21:13:00,165 S MAIN STREET GERMANTOWN OH 45327,-84.370751,39.6226569,Dayton
16520,2016-12-08,23:25:00,1478 E MARKET ST GERMANTOWN OH 45327,-84.3484469,39.6288089,Dayton
16522,2016-02-29,17:05:00,303 E SOUTH ST Gratis OH 45330,-84.522673,39.6478274,Dayton
16523,2016-05-18,12:25:00,405 12 Washington Ave Greenville OH 45331,-84.629773,40.096866,Dayton
16524,2016-05-26,13:05:00,156 E 5TH ST GREENVILLE OH 45331,-84.6298666,40.1004073,Dayton
16525,2016-07-21,21:50:00,222 W Main St Greenville OH 45331,-84.6356689,40.101415,Dayton
16526,2016-08-10,12:40:00,ST RT 502 GREENVILLE OH 45331,-84.6336255,40.1023708,Dayton
16527,2016-09-14,00:20:00,4776 S State Route 49 Greenville OH 45331,-84.6045545,40.0553116,Dayton
16528,2016-12-22,12:20:00,207 CANTERBURY DR GREENVILLE OH 45331,-84.6326629,40.124646,Dayton
16529,2016-11-06,13:12:00,3500 NORTH DRIVE GREENVILLE OH 45331,-84.666161,40.030476,Dayton
16530,2016-12-06,13:55:00,5755 STATE ROUTE 571 EAST GREENVILLE OH 45331,-84.5924264,40.0931057,Dayton
16531,2016-12-22,14:40:00,2827 US RTE 36 Greenville OH 45331,-84.697583,40.054376,Dayton
16532,2016-06-08,23:30:00,275 Foothill Dr BROOKVILLE OH 45333,-84.416417,39.826799,Dayton
16533,2016-01-07,22:35:00,4290 Shawnee Trl Jamestown OH 45335,-83.773711,39.655045,Dayton
16534,2016-05-24,00:55:00,9 Verity St Jamestown OH 45335,-83.731658,39.655861,Dayton
16535,2016-10-07,00:55:00,5859 N JEFFERSONVILLE RD JAMESTOWN OH 45335,-83.713767,39.660646,Dayton
16536,2016-10-20,15:10:00,25 ADAMS ST Jamestown OH 45335,-83.730624,39.660264,Dayton
16537,2016-11-27,23:35:00,5289 KLONTS RD JAMESTOWN OH 45335,-83.733334,39.682806,Dayton
16538,2016-11-13,18:05:00,2163 S STATE RT 721 LAURA OH 45337,-84.412816,40.005297,Dayton
16539,2016-12-05,00:00:00,5 LAURA CIR LAURA OH 45337,-84.406111,39.993935,Dayton
16540,2016-03-07,11:25:00,5306 Shields Rd Lewisburg OH 45338,-84.562141,39.813283,Dayton
16541,2016-03-07,15:05:00,5000 SHIELDS LEWISBURG OH 45338,-84.573781,39.809512,Dayton
16542,2016-07-14,23:55:00,8231 Rockridge Rd Lewisburg OH 45338,-84.55941,39.870971,Dayton
16543,2016-08-19,20:00:00,525 W CUMBERLAND ST APT 3H LEWISBURG OH 45338,-84.544726,39.85308,Dayton
16544,2016-08-31,20:00:00,7911 PREBLE COUNTY LINE RD LEWISBURG OH 45338,-84.484744,39.858423,Dayton
16545,2016-09-06,19:30:00,8341 SWAMP CREEK LEWISBURG OH 45338,-84.49274,39.877795,Dayton
16546,2016-09-06,21:55:00,8341 SWAMP CR LEWISBURG OH 45338,-84.49274,39.877795,Dayton
16547,2016-08-17,11:50:00,6979 STATE ROUTE 55 Ludlow Falls OH 45339,-84.3323829,39.997789,Dayton
16548,2016-03-10,11:55:00,mall ring rd Dayton OH 45342,-84.2217827,39.6316823,Dayton
16549,2016-04-15,00:00:00,222 byers rd Dayton OH 45342,-84.2336321,39.6377253,Dayton
16550,2016-05-04,19:50:00,965 S LINDEN MAIMISBURG OH 45342,-84.2712511,39.6273217,Dayton
16551,2016-09-07,03:55:00,10801 Jandor PLACE MIAMIBURG OH 45342,-84.2461686,39.5923261,Dayton
16552,2016-09-12,22:45:00,8901 KINGSRIDGE RD MIAMIBURG OH 45342,-84.219567,39.6303528,Dayton
16553,2016-11-01,07:05:00,6429 JADIK WAY MIAMIBURG OH 45342,-84.2268243,39.6489221,Dayton
16554,2016-11-23,21:45:00,8870 KINGSRIDGE MIAMIBURG OH 45342,-84.2185049,39.6294886,Dayton
16555,2016-01-11,00:00:00,9080 SPRINGBORO PIKE MIAMISBURG OH 45342,-84.2258839,39.619712,Dayton
16556,2016-01-02,11:35:00,6021 3rd Ave Miamisburg OH 45342,-84.291959,39.592215,Dayton
16557,2016-01-12,14:50:00,3232 Newmark Dr Miamisburg OH 45342,-84.218722,39.6240309,Dayton
16558,2016-01-03,00:20:00,10340 Springpointe Cir Miamisburg OH 45342,-84.2250692,39.5993016,Dayton
16559,2016-01-18,13:35:00,11150 Oakwood Village Blvd MIAMISBURG OH 45342,-84.2458552,39.58907,Dayton
16560,2016-01-06,07:00:00,423 Wileray Dr Miamisburg OH 45342,-84.276061,39.634659,Dayton
16561,2016-01-07,00:15:00,8621 Lyons Gate Way Miamisburg OH 45342,-84.2339864,39.6282949,Dayton
16562,2016-01-07,16:20:00,3846 SUMMIT GLEN DR MIAMISBURG OH 45342,-84.2280347,39.6422548,Dayton
16563,2016-01-08,00:15:00,1032 Dunaway St Miamisburg OH 45342,-84.26109,39.627348,Dayton
16564,2016-01-30,00:55:00,2320 Foxhill Dr Miamisburg OH 45342,-84.2187545,39.6182034,Dayton
16565,2016-01-31,13:15:00,11055 OAKWOOD VILLAGE BLVD MIAMISBURG OH 45342,-84.2448184,39.5903445,Dayton
16566,2016-02-07,23:25:00,1019 Orchard Hill Dr Miamisburg OH 45342,-84.2735192,39.6575425,Dayton
16567,2016-02-08,12:45:00,9333 Springboro Pike Miamisburg OH 45342,-84.228893,39.6164429,Dayton
16568,2016-02-19,16:00:00,5175 Pinemount Cir Miamisburg OH 45342,-84.2847653,39.6724273,Dayton
16569,2016-02-22,23:35:00,11417 Lonesome Oak Miamisburg OH 45342,-84.244277,39.588499,Dayton
16570,2016-03-09,15:00:00,3385 Newmark Dr Miamisburg OH 45342,-84.2227599,39.621128,Dayton
16571,2016-03-06,21:55:00,1008 Nunnery Dr Miamisburg OH 45342,-84.2759816,39.6508388,Dayton
16572,2016-03-22,22:15:00,610 CHERRY HILL DR MIAMISBURG OH 45342,-84.273317,39.632239,Dayton
16573,2016-03-31,11:30:00,9364 Eastbrook Dr Miamisburg OH 45342,-84.2229673,39.6153119,Dayton
16574,2016-03-31,19:25:00,1221 Old Main St W Miamisburg OH 45342,-84.296538,39.627642,Dayton
16575,2016-04-07,11:45:00,250 byers rd Miamisburg OH 45342,-84.2332608,39.6366402,Dayton
16576,2016-04-12,22:30:00,8100 Towson Blvd Miamisburg OH 45342,-84.2328859,39.6299923,Dayton
16577,2016-04-19,04:35:00,2294 CROSSVILLAGE DR MIAMISBURG OH 45342,-84.2178589,39.6088921,Dayton
16578,2016-04-28,10:35:00,75 N GEBHART ROAD C MIAMISBURG OH 45342,-84.254506,39.642307,Dayton
16579,2016-04-27,23:15:00,1721 GOODWIN PL MIAMISBURG OH 45342,-84.26253,39.62672,Dayton
16580,2016-04-26,13:05:00,101 Prestige Place Dr Miamisburg OH 45342,-84.2270447,39.6363256,Dayton
16581,2016-05-11,05:35:00,8981 KINGSRIDGE DR Miamisburg OH 45342,-84.223791,39.6309836,Dayton
16582,2016-06-24,21:05:00,155 N Heincke Rd Miamisburg OH 45342,-84.2663056,39.64191,Dayton
16583,2016-05-11,01:15:00,1040 Gas Light Ct Miamisburg OH 45342,-84.2628589,39.6283422,Dayton
16584,2016-05-24,04:20:00,1035 Gas Light Ct Miamisburg OH 45342,-84.263291,39.62788,Dayton
16585,2016-05-31,16:50:00,11417 Lonesome Oak Miamisburg OH 45342,-84.244277,39.588499,Dayton
16586,2016-06-08,10:25:00,3091 SAGEBROOK DR Miamisburg OH 45342,-84.222994,39.614163,Dayton
16587,2016-06-16,00:50:00,510 ROSETTA AVE MIAMISburg OH 45342,-84.277723,39.633036,Dayton
16588,2016-07-07,18:20:00,752 Loop St Miamisburg OH 45342,-84.27069,39.6472229,Dayton
16589,2016-06-24,19:00:00,201 S HEINCKE RD MIAMISBURG OH 45342,-84.2653549,39.6377752,Dayton
16590,2016-06-22,04:40:00,Springpointe Circle Miamisburg OH 45342,-84.2250692,39.5993016,Dayton
16591,2016-06-25,01:00:00,2579 CROSS VILLAGE DR Miamisburg OH 45342,-84.2227037,39.6112787,Dayton
16592,2016-07-13,20:20:00,1125 E Pearl St Miamisburg OH 45342,-84.271588,39.643637,Dayton
16593,2016-07-06,02:05:00,2821 Taos Dr Miamisburg OH 45342,-84.2284581,39.5991241,Dayton
16594,2016-07-18,05:45:00,3501 AUTUMN PLANK LN APT 915 Miamisburg OH 45342,-84.2327269,39.6268186,Dayton
16595,2016-07-14,01:50:00,102 S 2nd St Miamisburg OH 45342,-84.2870069,39.64087,Dayton
16596,2016-08-09,13:25:00,9718 Foxhound Dr Miamisburg OH 45342,-84.223084,39.616725,Dayton
16597,2016-07-25,15:30:00,3385 NEWMARK DR MIAMISBURG OH 45342,-84.2227599,39.621128,Dayton
16598,2016-07-27,19:20:00,9972 DAYTON CINCINNATI PIKE MIAMISBURG OH 45342,-84.2832844,39.6004259,Dayton
16599,2016-07-27,22:40:00,700 N 11TH ST MIAMISBURG OH 45342,-84.2728597,39.6471322,Dayton
16600,2016-09-15,18:30:00,2423 BELVO RD MIAMISBURG OH 45342,-84.240947,39.6233829,Dayton
16601,2016-08-21,22:20:00,10364 SPRINGPOINTE CIR APT J MIAMISBURG OH 45342,-84.2250692,39.5993016,Dayton
16602,2016-09-09,18:10:00,2130 EAST CENTRAL AVE MIAMISBURG OH 45342,-84.249914,39.6413719,Dayton
16603,2016-08-24,23:00:00,1525 ALMEDIA CT MIAMISBURG OH 45342,-84.2630061,39.6428446,Dayton
16604,2016-08-26,23:55:00,2300 Foxhill Dr MIAMISBURG OH 45342,-84.2186938,39.6180831,Dayton
16605,2016-09-16,04:10:00,2515 Windsor Village Dr Miamisburg OH 45342,-84.2211186,39.6094437,Dayton
16606,2016-09-20,02:00:00,11238 Crimson MIAMISBURG OH 45342,-84.244283,39.587921,Dayton
16607,2016-10-04,08:15:00,9708 FOXHOUND DR Miamisburg OH 45342,-84.222338,39.6178775,Dayton
16608,2016-10-05,23:20:00,301 S 5TH ST MIAMISBURG OH 45342,-84.284199,39.6379499,Dayton
16609,2016-10-12,11:35:00,3385 NEWMARK DR MIAMISBURG OH 45342,-84.2227599,39.621128,Dayton
16610,2016-10-13,21:00:00,170 S MAIN ST MIAMISBURG OH 45342,-84.2900129,39.6381592,Dayton
16611,2016-10-31,21:35:00,844 CAROLE ST MIAMISBURG OH 45342,-84.277075,39.6518609,Dayton
16612,2016-10-26,20:20:00,6056 11th Ave Miamisburg OH 45342,-84.295183,39.59602,Dayton
16613,2016-11-03,00:45:00,11246 CRIMSON MIAMISBURG OH 45342,-84.244283,39.587921,Dayton
16614,2016-12-13,12:00:00,9125 MUZETTE CT MIAMISBURG OH 45342,-84.217276,39.616262,Dayton
16615,2016-11-11,21:15:00,1416 KERCHER ST MIAMISBURG OH 45342,-84.264567,39.646593,Dayton
16616,2016-11-13,21:45:00,936 COTTAGE AVE MIAMISBURG OH 45342,-84.2761508,39.6480298,Dayton
16617,2016-11-15,19:50:00,8450 Tree Top Ct N 1009 Miamisburg OH 45342,-84.2343437,39.6262325,Dayton
16618,2016-11-23,13:40:00,1127 E CENTRAL AVE MIAMISBURG OH 45342,-84.2719568,39.6411156,Dayton
16619,2016-11-30,14:25:00,3232 NEWMARK DRIVE MIAMISBURG OH 45342,-84.218722,39.6240309,Dayton
16620,2016-11-29,05:15:00,3787 SUMMIT GLEN MIAMISBURG OH 45342,-84.2307617,39.6449247,Dayton
16621,2016-12-02,23:50:00,1309 MAUE RD MIAMISBURG OH 45342,-84.268762,39.633562,Dayton
16622,2016-12-04,23:35:00,3370 HEMLOCK LN MIAMISBURG OH 45342,-84.2337027,39.6270325,Dayton
16623,2016-12-07,19:40:00,1109 E LINDSEY AVE MIAMISBURG OH 45342,-84.272475,39.6455569,Dayton
16624,2016-12-16,21:50:00,2984 AUSTIN SPRINGS BLVD APT B MIAMISBURG OH 45342,-84.225387,39.5989731,Dayton
16625,2016-12-20,20:40:00,3600 RIGBY RD MIAMISBURG OH 45342,-84.232582,39.5989305,Dayton
16626,2016-12-28,02:45:00,228 Byers Rd Miamisburg OH 45342,-84.2339877,39.6373215,Dayton
16627,2016-12-28,04:30:00,40 Fiesta Ln Miamisburg OH 45342,-84.2262811,39.6367024,Dayton
16628,2016-06-16,09:30:00,8501 TREE TOP CT S MIAMSBURG OH 45342,-84.2342681,39.6256745,Dayton
16629,2016-06-22,06:55:00,2701 WOODENBROOK DR MIAMSBURG OH 45342,-84.2215978,39.6141299,Dayton
16630,2016-07-07,11:40:00,2110 LEITER RD MIAMSBURG OH 45342,-84.2521988,39.6383395,Dayton
16631,2016-08-10,12:05:00,3385 NEWMARK DR MIAMSBURG OH 45342,-84.2227599,39.621128,Dayton
16632,2016-05-31,22:20:00,863 S ALEX RD WEST CARROLLTON OH 45342,-84.2433133,39.6442912,Dayton
16633,2016-02-22,15:10:00,112 N Clay St New Carlisle OH 45344,-84.029534,39.937899,Dayton
16634,2016-03-23,15:10:00,108 N Scott St New Carlisle OH 45344,-84.028302,39.937826,Dayton
16635,2016-04-12,13:00:00,9830 W NATIONAL RD NEW CARLISLE OH 45344,-83.997642,39.914184,Dayton
16636,2016-05-17,22:25:00,2359 S Dayton Lkevw Rd New Carlisle OH 45344,-84.047471,39.8876724,Dayton
16637,2016-05-30,19:40:00,706 BAYBERRY DR NEW CARLISLE OH 45344,-84.0358658,39.9487946,Dayton
16638,2016-07-01,17:00:00,313 Galewood Dr New Carlisle OH 45344,-84.031814,39.946052,Dayton
16639,2016-07-22,15:35:00,812 N Medway Carlisle Rd New Carlisle OH 45344,-84.006649,39.929181,Dayton
16640,2016-07-26,08:40:00,946 SHEEHAN AVE NEW CARLISLE OH 45344,-84.0301847,39.8828268,Dayton
16641,2016-09-09,12:40:00,690 QUICK RD NEW CARLISLE OH 45344,-84.025688,39.924168,Dayton
16642,2016-09-15,02:10:00,313 GALEWOOD Dr NEW CARLISLE OH 45344,-84.031814,39.946052,Dayton
16643,2016-10-03,00:50:00,214 DRAKE AVE NEW CARLISLE OH 45344,-84.028876,39.9475849,Dayton
16644,2016-10-03,01:15:00,214 DRAKE AVE NEW CARLISLE OH 45344,-84.028876,39.9475849,Dayton
16645,2016-10-23,23:45:00,532 GLENN AVE NEW CARLISLE OH 45344,-84.040487,39.945161,Dayton
16646,2016-11-30,00:45:00,24 JOHN AVE NEW CARLISLE OH 45344,-84.0135862,39.9872663,Dayton
16647,2016-10-27,06:05:00,208-216 ORTH DRIVE NEW CARLISLE OH 45344,-84.034353,39.940201,Dayton
16648,2016-11-10,21:50:00,3406 MICHELLE DR NEW CARLISLE OH 45344,-84.0006777,39.9815337,Dayton
16649,2016-11-18,02:10:00,356 EAST CARPENTER DR NEW CARLISLE OH 45344,-84.0384582,39.8846694,Dayton
16650,2016-11-11,18:05:00,1242 FRAYNE DR NEW CARLISLE OH 45344,-84.0362745,39.8861264,Dayton
16651,2016-11-15,02:15:00,214 DRAKE AVE NEW CARLISLE OH 45344,-84.028876,39.9475849,Dayton
16652,2016-12-29,12:15:00,929 FIRWOOD NEW CARLISLE OH 45344,-84.0419735,39.9508757,Dayton
16653,2016-12-13,16:40:00,280 BRUBAKER NEW CARLISLE OH 45344,-84.019929,39.943526,Dayton
16654,2016-12-15,22:35:00,803 Bayberry NEW CARLISLE OH 45344,-84.036277,39.94953,Dayton
16655,2016-12-29,14:05:00,1025 BOOKWALTER AVE NEW CARLISLE OH 45344,-84.031861,39.8862809,Dayton
16656,2016-11-18,01:05:00,863 PORTLAND AVE NEW CARLISLE 45344 OH 45344,-84.0285959,39.881532,Dayton
16657,2016-01-05,22:25:00,958 N Clayton Rd New Lebanon OH 45345,-84.394359,39.759413,Dayton
16658,2016-02-14,15:25:00,417 S Clayton Rd New Lebanon OH 45345,-84.395448,39.739209,Dayton
16659,2016-06-27,21:50:00,419 Scarborough Ct New Lebanon OH 45345,-84.396531,39.739205,Dayton
16660,2016-08-16,22:00:00,50 BECKER ST NEW LEBANON OH 45345,-84.419058,39.744517,Dayton
16661,2016-10-14,16:15:00,213 Weaver New Lebanon OH 45345,-84.3824624,39.7469589,Dayton
16662,2016-02-23,20:50:00,4324 Palestine Hollansburg Rd New Madison OH 45346,-84.7474836,40.0410043,Dayton
16663,2016-04-14,20:35:00,103 S Spring St New Paris OH 45347,-84.7892815,39.8572338,Dayton
16664,2016-08-02,20:25:00,10717 Gettysburg Darke Rd New Paris OH 45347,-84.740022,39.885999,Dayton
16665,2016-08-25,21:10:00,10849 State Route 121 N New Paris OH 45347,-84.7737834,39.8994195,Dayton
16666,2016-11-23,12:00:00,207 E Walnut St New Paris OH 45347,-84.790716,39.859654,Dayton
16667,2016-12-29,22:10:00,5866 B RD New Paris OH 45347,-84.735377,39.900842,Dayton
16668,2016-02-24,12:15:00,1001 Garbry Rd Piqua OH 45356,-84.2166097,40.146046,Dayton
16669,2016-03-23,22:25:00,704 Cherry St Piqua OH 45356,-84.255695,40.160843,Dayton
16670,2016-04-18,12:40:00,1707 COMMERCE DR PIQUA OH 45356,-84.270833,40.14472,Dayton
16671,2016-05-12,12:50:00,9034 N Country Club Rd Piqua OH 45356,-84.2258334,40.1663852,Dayton
16672,2016-07-01,00:45:00,450 GARBRY RD PIQUA OH 45356,-84.226209,40.148497,Dayton
16673,2016-07-25,15:40:00,741 Staunton St Piqua OH 45356,-84.230495,40.1374939,Dayton
16674,2016-09-21,12:30:00,1162 CHEVY LN PIQUA OH 45356,-84.2358514,40.1647477,Dayton
16675,2016-10-24,15:20:00,8260 CO RD 25A Piqua OH 45356,-84.2380276,40.1604613,Dayton
16676,2016-10-25,02:50:00,505 KITT ST PIQUA OH 45356,-84.248976,40.141499,Dayton
16677,2016-10-25,04:25:00,722 BRICE ST PIQUA OH 45356,-84.2546039,40.1363336,Dayton
16678,2016-10-26,00:25:00,456 RIVERSIDE DR PIQUA OH 45356,-84.245972,40.158223,Dayton
16679,2016-11-15,14:35:00,229 EAST NORTH ST PIQUA OH 45356,-84.2388904,40.1518458,Dayton
16680,2016-11-29,14:48:00,923 W GREEN ST PIQUA OH 45356,-84.252842,40.150255,Dayton
16681,2016-12-06,02:00:00,433 S Roos evelt Ave PIQUA OH 45356,-84.244024,40.141998,Dayton
16682,2016-12-06,05:15:00,4374 STATE ROUTE 185 PIQUA OH 45356,-84.285783,40.161693,Dayton
16683,2016-12-20,10:55:00,555 STATE ROUTE 48 RUSSIA OH 45363,-84.3559916,40.199228,Dayton
16684,2016-05-01,17:55:00,112 W Robinwood St Sidney OH 45365,-84.1560193,40.3073389,Dayton
16685,2016-01-07,12:25:00,1200 Childrens Home Rd Sidney OH 45365,-84.1454301,40.2694893,Dayton
16686,2016-03-09,12:25:00,2355 COLLINS DR SIDNEY OH 45365,-84.1538374,40.3122144,Dayton
16687,2016-03-16,00:35:00,2100 Michigan St Sidney OH 45365,-84.1869566,40.2896925,Dayton
16688,2016-05-05,11:20:00,324 S Wilkinson Ave Sidney OH 45365,-84.1625977,40.2825017,Dayton
16689,2016-05-11,00:20:00,826 12 Crescent Dr Sidney OH 45365,-84.157024,40.2767962,Dayton
16690,2016-05-24,21:10:00,811 Clinton Ave Sidney OH 45365,-84.1488712,40.2945175,Dayton
16691,2016-06-24,07:39:00,1496 Hilltop Ave Sidney OH 45365,-84.1321879,40.3024376,Dayton
16692,2016-07-07,03:50:00,126 Mound St Sidney OH 45365,-84.1573233,40.2802016,Dayton
16693,2016-07-11,13:10:00,2775 Kristy Way Sidney OH 45365,-84.1640223,40.3173149,Dayton
16694,2016-07-21,20:00:00,4363 Hardin Wapakoneta Rd Sidney OH 45365,-84.2441911,40.262838,Dayton
16695,2016-07-21,18:25:00,815 Broadway Ave Sidney OH 45365,-84.1502639,40.2942321,Dayton
16696,2016-08-16,00:35:00,219 BROOKBURN Sidney OH 45365,-84.158428,40.2987633,Dayton
16697,2016-09-12,11:55:00,2300 W MICHIGAN ST SIDNEY OH 45365,-84.1901141,40.288131,Dayton
16698,2016-09-01,19:45:00,21747 MIDDLETON HUME RD Sidney OH 45365,-84.0319045,40.2199412,Dayton
16699,2016-08-31,14:00:00,325 KOSSUTH ST SIDNEY OH 45365,-84.1532317,40.2963617,Dayton
16700,2016-09-16,10:10:00,415 E POPLAR ST SIDNEY OH 45365,-84.1510808,40.2856535,Dayton
16701,2016-09-23,10:50:00,435 JEFFERSON ST SIDNEY OH 45365,-84.1514322,40.2924844,Dayton
16702,2016-10-18,11:10:00,340 APOLLO ST SIDNEY OH 45365,-84.1534433,40.3147888,Dayton
16703,2016-10-26,02:05:00,419 SHIE AVE SIDNEY OH 45365,-84.1451548,40.2818757,Dayton
16704,2016-10-25,01:25:00,700 COUNTRY SIDE LANE SIDNEY OH 45365,-84.1673627,40.2961033,Dayton
16705,2016-10-30,21:20:00,530 FRANKLIN AVE SIDNEY OH 45365,-84.1592064,40.279747,Dayton
16706,2016-11-09,00:40:00,700 COUNTRY SIDE LANE SIDNEY OH 45365,-84.1673627,40.2961033,Dayton
16707,2016-11-18,12:50:00,533 HEATHER WAY SIDNEY OH 45365,-84.1670703,40.3088526,Dayton
16708,2016-12-06,00:35:00,699 SPYGLASS CT SIDNEY OH 45365,-84.1674206,40.3116777,Dayton
16709,2016-07-27,00:35:00,1143 Teakwood Dr S Charleston OH 45368,-83.6717715,39.9289946,Dayton
16710,2016-09-19,23:40:00,4001 WOOSLEY RD S CHARLESTON OH 45368,-83.610573,39.851705,Dayton
16711,2016-10-19,16:20:00,3092 S BUENA VISTA RD S CHARLESTON OH 45368,-83.634591,39.87,Dayton
16712,2016-05-10,09:50:00,6716 EAST NATIONAL ROAD SOUTH CHARLESTON OH 45368,-83.677033,39.928462,Dayton
16713,2016-09-28,23:25:00,7968 E National Rd South Charleston OH 45368,-83.652199,39.9272769,Dayton
16714,2016-12-07,15:25:00,9000 COLUMBUS-CINCINNATI RD SOUTH CHARLESTON OH 45368,-83.6523712,39.8199159,Dayton
16715,2016-12-07,18:31:00,1001 BUENA VISTA RD LOT SOUTH VIENNA OH 45369,-83.649203,39.937125,Dayton
16716,2016-01-02,17:55:00,2922 Lower Bellbrook Rd Spring Valley OH 45370,-84.049113,39.633429,Dayton
16717,2016-09-16,01:35:00,3050 SEARS RD SPRING VALLEY OH 45370,-84.057407,39.590005,Dayton
16718,2016-11-04,05:20:00,102 RANCH RD SPRING VALLEY OH 45370,-84.0080946,39.6175335,Dayton
16719,2016-03-21,10:25:00,6510 S State Route 202 Phoneton OH 45371,-84.132357,39.935703,Dayton
16720,2016-07-19,00:00:00,9215 ST RT 202 PHONETON OH 45371,-84.13472,39.89627,Dayton
16721,2016-01-11,13:45:00,810 N Willow Glen Ave Tipp City OH 45371,-84.1865174,39.9560361,Dayton
16722,2016-02-17,00:45:00,9165 S State Route 202 Tipp City OH 45371,-84.1346497,39.8970004,Dayton
16723,2016-04-07,17:10:00,7533 State Route 201 Tipp City OH 45371,-84.085058,39.917926,Dayton
16724,2016-05-09,10:33:00,586 WINDRIDGE RD TIPP CITY OH 45371,-84.1820929,39.9702811,Dayton
16725,2016-05-20,15:00:00,125 W Broadway St Tipp City OH 45371,-84.1738182,39.9595247,Dayton
16726,2016-06-16,03:05:00,224 S 6th St Tipp City OH 45371,-84.174914,39.95835,Dayton
16727,2016-10-17,00:00:00,6880 BARD RD TIPP CITY OH 45371,-84.240317,39.9385819,Dayton
16728,2016-10-31,11:35:00,110 W ELM ST TIPP CITY OH 45371,-84.1731349,39.9540063,Dayton
16729,2016-11-22,13:57:00,622 BARBARA DR TIPP CITY OH 45371,-84.179492,39.953416,Dayton
16730,2016-12-02,03:00:00,710 CHEYENNE TIPP CITY OH 45371,-84.1854832,39.9718222,Dayton
16731,2016-12-27,10:55:00,6460 CO RD 25 A TIPP CITY OH 45371,-84.2000319,39.945301,Dayton
16732,2016-01-19,03:00:00,802 S Crawford St Troy OH 45373,-84.20378,40.030419,Dayton
16733,2016-03-01,11:15:00,828 E Main St Troy OH 45373,-84.194753,40.035358,Dayton
16734,2016-03-02,11:05:00,"40.03191,-84.18993 1311 E Main St Troy OH 45373",-84.189939,40.031918,Dayton
16735,2016-04-07,13:40:00,701 S STANFIELD RD Troy OH 45373,-84.2411598,40.0439275,Dayton
16736,2016-04-22,01:20:00,1139 Jeep St Troy OH 45373,-84.1948132,40.0288354,Dayton
16737,2016-05-03,00:50:00,901 Mckaig Ave Troy OH 45373,-84.214273,40.040169,Dayton
16738,2016-05-27,00:40:00,420 S MARKET ST TROY OH 45373,-84.20712,40.035502,Dayton
16739,2016-06-10,18:30:00,997 Fairfield Rd Troy OH 45373,-84.191104,40.049112,Dayton
16740,2016-08-11,14:50:00,101 STANFIELD TROY OH 45373,-84.236538,40.048644,Dayton
16741,2016-07-01,10:20:00,632 Meadow Ln Troy OH 45373,-84.188998,40.045402,Dayton
16742,2016-07-21,21:10:00,911 Washington St Troy OH 45373,-84.213305,40.045513,Dayton
16743,2016-07-21,22:55:00,463 STONYRIDGE AVE TROY OH 45373,-84.1787099,40.0421821,Dayton
16744,2016-07-22,02:20:00,1543 LEEDES RD TROY OH 45373,-84.228268,40.060696,Dayton
16745,2016-07-29,10:50:00,101 S STANFIELD TROY OH 45373,-84.236538,40.048644,Dayton
16746,2016-08-04,07:25:00,819 Cobblestone Drive Troy OH 45373,-84.242479,40.04367,Dayton
16747,2016-08-12,09:30:00,504 S Walnut St Troy OH 45373,-84.20627,40.034328,Dayton
16748,2016-08-17,06:55:00,1047 Skylark Dr TROY OH 45373,-84.1830558,40.0495116,Dayton
16749,2016-08-30,13:45:00,1900 W MAIN ST TROY OH 45373,-84.2433804,40.0545302,Dayton
16750,2016-09-07,22:40:00,555 STAUTON COMMONS DR TROY OH 45373,-84.192572,40.042904,Dayton
16751,2016-10-15,02:45:00,1322 IMPERIAL CT TROY OH 45373,-84.1784679,40.0437113,Dayton
16752,2016-11-06,15:35:00,5760 TIPP ELIZABETH RD TROY OH 45373,-84.103214,39.984194,Dayton
16753,2016-11-06,14:20:00,715 MCCAIG TROY OH 45373,-84.211924,40.040224,Dayton
16754,2016-11-04,03:30:00,1202 MAPLE TROY OH 45373,-84.219018,40.021518,Dayton
16755,2016-11-07,01:30:00,816 W RACE ST TROY OH 45373,-84.2130984,40.0383146,Dayton
16756,2016-11-16,12:55:00,922 S MULBERRY ST TROY OH 45373,-84.206206,40.029829,Dayton
16757,2016-05-04,22:15:00,1705 Jackson Rd Union OH 45377,-84.2597431,39.8991062,Dayton
16758,2016-09-29,06:15:00,1800 UNION AIRPARK UNION OH 45377,-84.257727,39.9043023,Dayton
16759,2016-10-18,13:35:00,1800 UNION AIRPARK  BLVD VADALIA OH 45377,-84.257727,39.9043023,Dayton
16760,2016-01-06,14:30:00,1625 FIELDSTONE WAY VANDALIA OH 45377,-84.2292457,39.8767101,Dayton
16761,2016-04-06,16:02:00,1533 JACKSON RD VANDALIA OH 45377,-84.2636795,39.8989489,Dayton
16762,2016-04-25,13:10:00,1180 W National Rd Vandalia OH 45377,-84.2205287,39.8881428,Dayton
16763,2016-04-25,11:15:00,1180 W National Rd Vandalia OH 45377,-84.2205287,39.8881428,Dayton
16764,2016-05-10,04:55:00,TIONDA DR VANDALIA OH 45377,-84.1941018,39.8892245,Dayton
16765,2016-05-19,13:25:00,1180 W National Rd VANDALIA OH 45377,-84.2205287,39.8881428,Dayton
16766,2016-06-27,17:20:00,417 HELKE RD VANDALIA OH 45377,-84.2090907,39.8854489,Dayton
16767,2016-08-16,16:10:00,117 S BROWN SCHOOL RD Vandalia OH 45377,-84.1805711,39.8891498,Dayton
16768,2016-09-06,12:05:00,"1180 W National Rd, Vandalia OH 45377",-84.2205287,39.8881428,Dayton
16769,2016-09-29,04:30:00,716 Estelle Dr VANDALIA OH 45377,-84.211262,39.878346,Dayton
16770,2016-09-29,04:45:00,237 S DIXIE DRIVE VANDALIA OH 45377,-84.2003775,39.8879132,Dayton
16771,2016-11-17,22:00:00,484 REICHARD DR VANDALIA OH 45377,-84.190249,39.885172,Dayton
16772,2016-11-17,23:20:00,484 REICHARD DR VANDALIA OH 45377,-84.190249,39.885172,Dayton
16773,2016-10-19,02:34:00,48 GABRIEL STREET VANDALIA OH 45377,-84.201869,39.889441,Dayton
16774,2016-10-18,15:25:00,1800 Airpark Vandalia OH 45377,-84.257727,39.9043023,Dayton
16775,2016-10-25,03:05:00,484 REICHARD DR VANDALIA OH 45377,-84.190249,39.885172,Dayton
16776,2016-10-25,02:30:00,484 REICHARD DR VANDALIA OH 45377,-84.190249,39.885172,Dayton
16777,2016-10-28,02:00:00,336 RANCHVIEW DRIVE VANDALIA OH 45377,-84.191254,39.887577,Dayton
16778,2016-11-02,12:50:00,1614 CAPSTONE WAY VANDALIA OH 45377,-84.2287066,39.8792251,Dayton
16779,2016-11-08,13:20:00,843 SUSSEX PL VANDALIA OH 45377,-84.2144248,39.8764666,Dayton
16780,2016-12-06,12:05:00,1010 CONTINENTAL CT VANDALIA OH 45377,-84.217344,39.887386,Dayton
16781,2016-11-30,11:25:00,1655 CAPSTONE WAY VANDALIA OH 45377,-84.2306149,39.8811047,Dayton
16782,2016-12-16,10:05:00,1180 W National Rd Vandalia OH 45377,-84.2205287,39.8881428,Dayton
16783,2016-12-06,22:50:00,219 James Bohanan Dr VANDALIA OH 45377,-84.1956319,39.892727,Dayton
16784,2016-12-21,00:30:00,1800 UNION AIRPARK BLVD VANDALIA OH 45377,-84.257727,39.9043023,Dayton
16785,2016-09-21,00:35:00,58 W 3rd St West ALEXANDRRIA OH 45381,-84.535527,39.746096,Dayton
16786,2016-02-16,18:50:00,167 Woodside Dr W Alexandria OH 45381,-84.587063,39.746609,Dayton
16787,2016-04-04,17:00:00,183 Sample Rd W Alexandria OH 45381,-84.5789209,39.7417919,Dayton
16788,2016-08-17,13:05:00,19 E Oak St West Alexandria OH 45381,-84.531223,39.742706,Dayton
16789,2016-11-06,20:45:00,166 Woodside Dr West Alexandria OH 45381,-84.58581,39.74662,Dayton
16790,2016-12-29,17:10:00,2262 NEW MARKET BANTA RD WEST ALEXANDRIA OH 45381,-84.5213002,39.7778837,Dayton
16791,2016-01-29,08:50:00,11874 Us Route 127 W Manchester OH 45382,-84.625342,39.915396,Dayton
16792,2016-12-30,12:10:00,785 W HOLTZMULLER RD W MANCHESTER OH 45382,-84.641015,39.9095579,Dayton
16793,2016-02-17,10:25:00,5486 IDDINGS RD WEST MILTON OH 45383,-84.314264,39.95711,Dayton
16794,2016-06-22,23:50:00,330 Hasket Rd West Milton OH 45383,-84.339619,39.963947,Dayton
16795,2016-10-28,00:50:00,81 WOODS DR WEST MILTON OH 45383,-84.322282,39.941282,Dayton
16796,2016-12-01,14:45:00,70 Larrel Ln West Milton OH 45383,-84.3237937,39.9423615,Dayton
16797,2016-07-14,16:20:00,1400 Brush Row Rd Wilberforce OH 45384,-83.8771617,39.714915,Dayton
16798,2016-06-09,05:25:00,580 Newport Rd Beavercrk Twp OH 45385,-84.0171466,39.7123717,Dayton
16799,2016-06-27,22:25:00,2621 Childers Dr Beavercrk Twp OH 45385,-83.97681,39.6632,Dayton
16800,2016-08-18,19:10:00,1963 ROXBURY DR BEAVERCRK TWP OH 45385,-83.9641031,39.667532,Dayton
16801,2016-08-24,00:25:00,1331 SHANNON LN BEAVERCRK TWP OH 45385,-83.979534,39.659217,Dayton
16802,2016-09-16,18:10:00,88 PROGRESS DR Beavercrk Twp OH 45385,-83.9632345,39.6889353,Dayton
16803,2016-09-21,21:55:00,1613 GAYHART CT BEAVERCRK TWP OH 45385,-83.9660685,39.6744477,Dayton
16804,2016-09-27,19:55:00,1226 BERWALD DR BEAVERCRK TWP OH 45385,-83.950372,39.693551,Dayton
16805,2016-09-27,23:40:00,275 LAKE STREET BEAVERCRK TWP OH 45385,-83.9311646,39.7068737,Dayton
16806,2016-10-01,07:35:00,1697 COMMONWEALTH DR BEAVERCRK TWP OH 45385,-83.961797,39.67073,Dayton
16807,2016-11-14,05:20:00,291 SHEPARD RD BEAVERCRK TWP OH 45385,-84.031888,39.682984,Dayton
16808,2016-11-15,02:25:00,2053 PUEVLO DR BEAVERCRK TWP OH 45385,-83.9646347,39.6754939,Dayton
16809,2016-12-29,19:45:00,2085 STEWART RD BEAVERCRK TWP OH 45385,-84.0118372,39.6618011,Dayton
16810,2016-01-02,19:20:00,1520 OSHAUGHNESY DR XENIA OH 45385,-83.964085,39.678927,Dayton
16811,2016-01-25,20:15:00,1441 Seminole Dr Xenia OH 45385,-83.960868,39.679521,Dayton
16812,2016-01-25,20:20:00,1441 Seminole Dr Xenia OH 45385,-83.960868,39.679521,Dayton
16813,2016-02-01,15:20:00,1645 N Detroit St Xenia OH 45385,-83.9334215,39.7077082,Dayton
16814,2016-02-01,19:10:00,1080 E Main St Xenia OH 45385,-83.909818,39.687774,Dayton
16815,2016-02-16,20:35:00,1064 Frederick Dr Xenia OH 45385,-83.930878,39.69968,Dayton
16816,2016-03-03,13:40:00,478 Mount Vernon Dr Xenia OH 45385,-83.939789,39.672082,Dayton
16817,2016-03-02,19:20:00,1326 Seneca Dr Xenia OH 45385,-83.9644092,39.6814825,Dayton
16818,2016-04-12,20:00:00,128 Hillcrest Ave Xenia OH 45385,-83.941573,39.685744,Dayton
16819,2016-04-11,10:40:00,2265 VIRGINIA DRIVE XENIA OH 45385,-83.972483,39.668455,Dayton
16820,2016-05-23,21:30:00,1874 ARAPAHO CT Xenia OH 45385,-83.962324,39.6740132,Dayton
16821,2016-06-08,19:05:00,55 S FAIR STREET XENIA OH 45385,-83.92008,39.685115,Dayton
16822,2016-05-19,12:25:00,341 SHELTON RD XENIA OH 45385,-83.937332,39.672644,Dayton
16823,2016-05-24,03:25:00,1605 ARAPAHO DR XENIA OH 45385,-83.958783,39.671706,Dayton
16824,2016-06-08,16:40:00,968 Richland Rd XENIA OH 45385,-83.9765369,39.623635,Dayton
16825,2016-07-19,08:50:00,1109 Glen Kegley Dr Xenia OH 45385,-83.975703,39.664435,Dayton
16826,2016-07-19,09:45:00,"1930 Vermont Drive, Xenia, OH 45385 39.675678,-83.970493 Xenia OH 45385",-83.970715,39.675837,Dayton
16827,2016-07-24,07:05:00,214 CORWIN ST Xenia OH 45385,-83.928765,39.687983,Dayton
16828,2016-07-24,02:15:00,1959 Pennsylvania Dr Xenia OH 45385,-83.971313,39.675958,Dayton
16829,2016-07-28,03:55:00,1478 Greene Lake Dr Xenia OH 45385,-83.9322409,39.7083153,Dayton
16830,2016-08-03,12:05:00,180 S ALLISON AVE Xenia OH 45385,-83.9433994,39.6819212,Dayton
16831,2016-08-10,16:20:00,1136 DETROIT ST LOT 32 XENIA OH 45385,-83.935013,39.7002529,Dayton
16832,2016-08-17,03:55:00,160 Montana Dr XENIA OH 45385,-83.97213,39.680338,Dayton
16833,2016-08-31,08:45:00,640 BIRCH RD XENIA OH 45385,-83.9112653,39.6802248,Dayton
16834,2016-09-12,20:35:00,357 Stelton Rd XENIA OH 45385,-83.9376842,39.6736934,Dayton
16835,2016-10-12,18:45:00,240 MULBERRY ST XENIA OH 45385,-83.915911,39.68968,Dayton
16836,2016-10-06,17:20:00,1449 Colorado Dr Xenia OH 45385,-83.9653745,39.6649079,Dayton
16837,2016-10-11,07:25:00,618 LUCAS XENIA OH 45385,-83.929452,39.6934788,Dayton
16838,2016-10-11,04:35:00,618 LUCAS DR Xenia OH 45385,-83.929452,39.6934788,Dayton
16839,2016-10-12,12:00:00,610 SMITH AVE XENIA OH 45385,-83.930372,39.693432,Dayton
16840,2016-10-18,23:35:00,2190 MISSISSIPPI DR XENIA OH 45385,-83.971416,39.668494,Dayton
16841,2016-10-19,02:50:00,1928 FORIDA DR XENIA OH 45385,-83.969524,39.674562,Dayton
16842,2016-10-29,05:05:00,2320 TENNESSEE DR XENIA OH 45385,-83.973067,39.666955,Dayton
16843,2016-10-30,22:10:00,1716 ROCKWELL DR XENIA OH 45385,-83.959974,39.6867639,Dayton
16844,2016-11-04,10:33:00,843 FLORENCE STREET XENIA OH 45385,-83.9339959,39.695873,Dayton
16845,2016-11-04,07:25:00,263 MONTANA DR XENIA OH 45385,-83.971,39.679232,Dayton
16846,2016-11-04,02:55:00,1167-1171 Circle Drive XENIA OH 45385,-83.949287,39.683981,Dayton
16847,2016-11-07,14:15:00,1473 June Dr Xenia OH 45385,-83.955171,39.686783,Dayton
16848,2016-11-07,12:05:00,716 Xenia Ave Xenia OH 45385,-83.933687,39.675102,Dayton
16849,2016-11-09,19:15:00,2854 US HIGHWAY 68 S XENIA OH 45385,-83.8701261,39.5936842,Dayton
16850,2016-11-22,05:20:00,1655 DRAKE DR XENIA OH 45385,-83.958557,39.682235,Dayton
16851,2016-11-22,00:45:00,580 NEWPORT RD XENIA OH 45385,-83.9423323,39.6702295,Dayton
16852,2016-11-22,20:25:00,331-339 CENTER ST XENIA OH 45385,-83.938012,39.679903,Dayton
16853,2016-12-05,14:40:00,999 LEXINGTON AVE XENIA OH 45385,-83.9128541,39.6903764,Dayton
16854,2016-12-20,23:35:00,538 CONARD DR XENIA OH 45385,-83.952467,39.694222,Dayton
16855,2016-12-20,21:20:00,253 Antrim Rd XENIA OH 45385,-83.9448111,39.6881543,Dayton
16856,2016-12-16,20:20:00,2216 DUNDEE XENIA OH 45385,-83.9691328,39.664618,Dayton
16857,2016-04-28,10:55:00,BOULDER RIDGE DR DAYTON OH 45390,-84.1045955,39.6907488,Dayton
16858,2016-07-28,16:05:00,950 WILMINGTON PLACE DAYTON OH 45390,-84.1557841,39.7286117,Dayton
16859,2016-12-01,21:25:00,4260 PENN AVE DAYTON OH 45390,-84.11633,39.7456135,Dayton
16860,2016-12-09,01:15:00,VANHALLA PL DAYTON OH 45390,-84.241311,39.6488286,Dayton
16861,2016-12-13,03:40:00,27 HILLGARD ST DAYTON OH 45390,-84.3037279,39.7933091,Dayton
16862,2016-03-10,20:40:00,903 E Central St Union City OH 45390,-84.7955946,40.2020834,Dayton
16863,2016-01-05,19:05:00,48 Dayton Ave Dayton OH 45402,-84.208159,39.76232,Dayton
16864,2016-01-14,12:15:00,444 W 3rd St DAYTON OH 45402,-84.197682,39.758135,Dayton
16865,2016-01-28,14:15:00,844 CLARKSON AVE DAYTON OH 45402,-84.25001,39.7628,Dayton
16866,2016-02-03,16:00:00,920 MEREDITH ST DAYTON OH 45402,-84.212189,39.766306,Dayton
16867,2016-03-18,14:05:00,27 Kinnard Ave Dayton OH 45402,-84.2213164,39.7495251,Dayton
16868,2016-03-28,17:50:00,1017 Wawona Rd Dayton OH 45402,-84.2330816,39.7672502,Dayton
16869,2016-03-29,18:00:00,848 Riverview Ter Dayton OH 45402,-84.2066864,39.7615293,Dayton
16870,2016-05-20,16:45:00,1225 Vernon Dr Dayton OH 45402,-84.229693,39.769923,Dayton
16871,2016-06-01,05:15:00,24 S HEDGES Dayton OH 45402,-84.148337,39.76586,Dayton
16872,2016-05-20,17:55:00,718 Leland Ave Dayton OH 45402,-84.2446285,39.7622188,Dayton
16873,2016-06-13,21:30:00,E 2ND ST Dayton OH 45402,-84.1827482,39.7625046,Dayton
16874,2016-07-22,00:10:00,425 Lexington Ave Dayton OH 45402,-84.2205388,39.7682015,Dayton
16875,2016-07-25,12:45:00,227 JACKSON ST DAYTON OH 45402,-84.1833319,39.7555287,Dayton
16876,2016-09-01,15:25:00,100 S KEOWEE ST 100 DAYTON OH 45402,-84.1769412,39.7606068,Dayton
16877,2016-09-18,23:40:00,1724 WEST 1ST ST Dayton OH 45402,-84.224311,39.755992,Dayton
16878,2016-09-02,05:40:00,"10 FITCH STREET DAYTON, OH 45402 DAYTON OH 45402",-84.2100754,39.7502576,Dayton
16879,2016-09-07,15:55:00,611 YALE AVE DAYTON OH 45402,-84.225089,39.770842,Dayton
16880,2016-10-05,09:35:00,820 LELAND AVE DAYTON OH 45402,-84.244579,39.763396,Dayton
16881,2016-09-29,09:50:00,301 N CONOVER STREET DAYTON OH 45402,-84.2171025,39.7583638,Dayton
16882,2016-10-31,16:35:00,1210 EVERETT DR DAYTON OH 45402,-84.23021,39.769581,Dayton
16883,2016-11-10,15:20:00,26 S WILKINSON ST DAYTON OH 45402,-84.1951763,39.7585997,Dayton
16884,2016-12-08,11:55:00,238 GENEVA RD DAYTON OH 45402,-84.260247,39.750967,Dayton
16885,2016-12-08,19:40:00,432-598 WATER ST DAYTON OH 45402,-84.1833736,39.7674053,Dayton
16886,2016-12-28,23:30:00,232 BOYER ST DAYTON OH 45402,-84.219101,39.749416,Dayton
16887,2016-10-25,15:55:00,24 Grimes Middletown OH 45402,-84.3936497,39.5145279,Dayton
16888,2016-02-08,14:50:00,61 S Torrence St Dayton OH 45403,-84.159411,39.7632143,Dayton
16889,2016-01-10,23:20:00,10 Webb ST DAYTON OH 45403,-84.167115,39.7638652,Dayton
16890,2016-01-14,21:15:00,3579 Fielding Dr Dayton OH 45403,-84.1319693,39.7524187,Dayton
16891,2016-02-23,00:00:00,214 N Westview Ave Dayton OH 45403,-84.142337,39.770696,Dayton
16892,2016-02-19,12:40:00,1785 Gondert Ave Dayton OH 45403,-84.1339544,39.7546791,Dayton
16893,2016-02-16,17:30:00,536 Mount Crst Dayton OH 45403,-84.1374167,39.7755108,Dayton
16894,2016-03-23,14:00:00,506 SHERIDAN AVE DAYTON OH 45403,-84.1475879,39.7598261,Dayton
16895,2016-04-18,12:40:00,131 S HEDGES ST DAYTON OH 45403,-84.148358,39.763619,Dayton
16896,2016-05-04,23:40:00,208 N Irwin St Dayton OH 45403,-84.1516827,39.7688991,Dayton
16897,2016-05-06,15:35:00,138 Boltin St Dayton OH 45403,-84.165759,39.756663,Dayton
16898,2016-05-12,22:25:00,1108 BLAKLEY DR Dayton OH 45403,-84.133387,39.752166,Dayton
16899,2016-05-17,15:50:00,1630 DARST AVE DAYTON OH 45403,-84.137224,39.7582189,Dayton
16900,2016-06-02,01:05:00,1946 GONDERT AVE DAYTON OH 45403,-84.1302759,39.7542835,Dayton
16901,2016-06-21,16:20:00,107 SEMINARY AVE DAYTON OH 45403,-84.147977,39.75614,Dayton
16902,2016-07-14,16:55:00,229 N Wright Ave Dayton OH 45403,-84.141683,39.771194,Dayton
16903,2016-07-18,00:00:00,2931 EAST 1ST STREET DAYTON OH 45403,-84.152885,39.768687,Dayton
16904,2016-09-01,01:50:00,732 Huffman DAYTON OH 45403,-84.1553593,39.7584198,Dayton
16905,2016-09-01,20:15:00,9 PARNELL AVE DAYTON OH 45403,-84.147549,39.757826,Dayton
16906,2016-10-02,23:25:00,1721 RADIO RD APT 5B DAYTON OH 45403,-84.136711,39.773482,Dayton
16907,2016-10-04,02:35:00,3204 E 2nd St DAYTON OH 45403,-84.149887,39.767631,Dayton
16908,2016-11-29,19:15:00,1487 HUFFMAN AVENUE DAYTON OH 45403,-84.140912,39.757992,Dayton
16909,2016-11-14,01:25:00,1661 SUMAN AVE DAYTON OH 45403,-84.13652,39.756797,Dayton
16910,2016-11-27,20:10:00,1425 DARST AVE DAYTON OH 45403,-84.142981,39.759036,Dayton
16911,2016-11-30,00:00:00,32 S Findlay St Dayton OH 45403,-84.156604,39.764265,Dayton
16912,2016-12-21,01:20:00,199 North McGee Dayton OH 45403,-84.1510947,39.7622384,Dayton
16913,2016-04-29,03:40:00,14 INDIANA AVE DAYTON OH 45404,-84.1611099,39.746448,Dayton
16914,2016-02-01,10:45:00,300 PLEASANT VALLEY AVE DAYTON OH 45404,-84.1383819,39.79687,Dayton
16915,2016-02-25,22:25:00,619 Willow St Dayton OH 45404,-84.182505,39.7734768,Dayton
16916,2016-03-21,18:25:00,2161 Forest Home Ave Dayton OH 45404,-84.146387,39.792129,Dayton
16917,2016-04-21,02:25:00,WYOMING ST DAYTON OH 45404,-84.1669474,39.747297,Dayton
16918,2016-05-17,00:55:00,2329 Troy St Dayton OH 45404,-84.162965,39.795451,Dayton
16919,2016-05-12,22:40:00,777 HOLLYWOOD BLVD DAYTON OH 45404,-84.172461,39.8164806,Dayton
16920,2016-06-01,09:55:00,3300 E3RD ST DAYTON OH 45404,-84.148642,39.766365,Dayton
16921,2016-07-14,02:15:00,2568 Guernsey Del DAYTON OH 45404,-84.1385893,39.7960665,Dayton
16922,2016-07-29,00:15:00,580 Monticello Ave Dayton OH 45404,-84.145624,39.794827,Dayton
16923,2016-10-18,23:50:00,3774 Lakebend Dr Dayton OH 45404,-84.1553681,39.7972815,Dayton
16924,2016-10-21,10:20:00,2357 BUSHNELL AVENUE DAYTON OH 45404,-84.142753,39.792746,Dayton
16925,2016-11-17,11:50:00,78 BALTIMORE DAYTON OH 45404,-84.1706491,39.7774962,Dayton
16926,2016-11-22,02:35:00,5 NAAS PL DAYTON OH 45404,-84.166821,39.778152,Dayton
16927,2016-11-28,13:35:00,8015 MT HOOD DAYTON OH 45404,-84.1329928,39.8668272,Dayton
16928,2016-12-19,21:00:00,3605 E 5TH ST Dayton OH 45404,-84.1445423,39.7628501,Dayton
16929,2016-12-19,22:25:00,1325 LEONHARD ST DAYTON OH 45404,-84.1756314,39.7802915,Dayton
16930,2016-11-14,21:10:00,215 MCDANIEL ST APT 411 DAYOTN OH 45405,-84.1964417,39.7686442,Dayton
16931,2016-01-19,00:35:00,225 Pointview Ave Dayton OH 45405,-84.2094,39.793219,Dayton
16932,2016-01-06,18:25:00,111 Bennington Dr Dayton OH 45405,-84.224962,39.804251,Dayton
16933,2016-01-07,17:05:00,644 N MAIN ST DAYTON OH 45405,-84.1945365,39.7692702,Dayton
16934,2016-01-09,01:10:00,41 Basswood Ave Dayton OH 45405,-84.211478,39.7897232,Dayton
16935,2016-01-13,00:15:00,1933 Riverside Dr Dayton OH 45405,-84.204888,39.783148,Dayton
16936,2016-01-22,11:00:00,1390 KING TREE CT DAYTON OH 45405,-84.2093853,39.8065942,Dayton
16937,2016-02-11,18:05:00,2112 Mayfair Rd Dayton OH 45405,-84.219911,39.785972,Dayton
16938,2016-02-16,23:00:00,67 W Nottingham Rd DAYTON OH 45405,-84.2249353,39.8057805,Dayton
16939,2016-02-25,17:20:00,3410 Burgoyne Dr Dayton OH 45405,-84.2444463,39.8028378,Dayton
16940,2016-03-11,01:01:00,4035 IDDINGS CT dayton OH 45405,-84.2080378,39.8073071,Dayton
16941,2016-04-15,01:55:00,5610 N MAIN ST Dayton OH 45405,-84.2340101,39.8188839,Dayton
16942,2016-03-18,01:50:00,4122-4148 Pompton Ct DAYTON OH 45405,-84.2095589,39.8078237,Dayton
16943,2016-03-24,09:15:00,301 E Fairview Ave Dayton OH 45405,-84.2065742,39.7868981,Dayton
16944,2016-03-24,22:50:00,46 W NOTTINGHAM RD DAYTON OH 45405,-84.223949,39.805547,Dayton
16945,2016-04-15,09:30:00,4251 Briar Pl Dayton OH 45405,-84.227797,39.804513,Dayton
16946,2016-04-21,03:00:00,4341 Springcreek Dr Dayton OH 45405,-84.2134761,39.8118955,Dayton
16947,2016-04-26,11:45:00,533 W Fairview Ave Dayton OH 45405,-84.221144,39.786297,Dayton
16948,2016-10-14,06:10:00,650 TYSON DAYTON OH 45405,-84.26662,39.756625,Dayton
16949,2016-06-02,11:55:00,1237 Wabasn Ave Dayton OH 45405,-84.219406,39.778796,Dayton
16950,2016-11-14,22:25:00,103 Cromwell Pl Dayton OH 45405,-84.223867,39.803994,Dayton
16951,2016-10-06,05:55:00,40 FER DON RD Dayton OH 45405,-84.2108597,39.8015626,Dayton
16952,2016-08-23,17:55:00,23 JERSEY ST DAYTON OH 45405,-84.1532545,39.7656836,Dayton
16953,2016-08-18,18:50:00,499 Neal Ave 39.770900 -84.205943 Dayton OH 45405,-84.2053664,39.7709048,Dayton
16954,2016-08-19,13:40:00,4519 LANSMORE DR DAYTON OH 45405,-84.239508,39.814372,Dayton
16955,2016-09-05,21:50:00,4161 PAFFORD RD DAYTON OH 45405,-84.213098,39.807839,Dayton
16956,2016-09-28,10:35:00,165 W Fairview Avenue DAYTON OH 45405,-84.215716,39.7850032,Dayton
16957,2016-09-11,21:55:00,211 REDWOOD AVE DAYTON OH 45405,-84.2142394,39.8005389,Dayton
16958,2016-09-08,16:40:00,4339 RIVERSIDE DRIVE DAYTON OH 45405,-84.2142099,39.8106708,Dayton
16959,2016-11-03,00:00:00,4339 RIVERSIDE DR APT D2 DAYTON OH 45405,-84.2142099,39.8106708,Dayton
16960,2016-09-26,12:25:00,257 Santa Clara Ave Dayton OH 45405,-84.215276,39.781154,Dayton
16961,2016-10-02,22:25:00,4310 SPRINGCREEK DAYTON OH 45405,-84.2123763,39.8112041,Dayton
16962,2016-10-03,15:20:00,31 GLENWOOD AVE DAYTON OH 45405,-84.205215,39.7806227,Dayton
16963,2016-10-03,16:05:00,75 CENTRAL DAYTON OH 45405,-84.2053166,39.7647992,Dayton
16964,2016-11-04,16:00:00,108 Linwood St Dayton OH 45405,-84.1908543,39.766797,Dayton
16965,2016-11-09,15:40:00,934 OLD ORCHARD RD DAYTON OH 45405,-84.205054,39.773319,Dayton
16966,2016-11-11,15:20:00,3312 VALERIE DR DAYTON OH 45405,-84.241257,39.8074269,Dayton
16967,2016-11-30,10:10:00,453-461 ROY AVE DAYTON OH 45405,-84.161382,39.726182,Dayton
16968,2016-12-08,00:35:00,1116 GRAFTON AVE FL 2 DAYTON OH 45405,-84.2075658,39.7772547,Dayton
16969,2016-12-07,21:55:00,146 REDDER AVE Dayton OH 45405,-84.22386,39.800416,Dayton
16970,2016-12-21,02:20:00,35 MCOWEN ST DAYTON OH 45405,-84.200742,39.776837,Dayton
16971,2016-12-08,15:05:00,4351 Riverside Dr Dayton OH 45405,-84.211651,39.8094759,Dayton
16972,2016-12-09,14:05:00,3250 GARVIN RD DAYTON OH 45405,-84.2414774,39.8021234,Dayton
16973,2016-08-23,15:40:00,"426 FOUNTAIN AVE DAYTON, OH OH 45405",-84.216485,39.777622,Dayton
16974,2016-09-01,00:15:00,338 JOHN ST SPRINGIELD OH 45405,-83.8061839,39.9024064,Dayton
16975,2016-03-16,00:00:00,2605 Greenbrier Dr Dayton OH 45406,-84.261681,39.794767,Dayton
16976,2016-01-04,17:30:00,1144 Salem AVENUE DAYTON OH 45406,-84.21804,39.775808,Dayton
16977,2016-01-27,10:45:00,3422 Cornell Dr Dayton OH 45406,-84.243308,39.775999,Dayton
16978,2016-01-18,19:30:00,1701 Kensington Dr Dayton OH 45406,-84.241901,39.7796949,Dayton
16979,2016-01-22,02:05:00,1741 Layton Dr Dayton OH 45406,-84.245071,39.780294,Dayton
16980,2016-02-02,13:10:00,2032 Cornell Ridge Dr Dayton OH 45406,-84.2515911,39.778076,Dayton
16981,2016-02-22,17:40:00,1923 Emerson Ave Dayton OH 45406,-84.22344,39.783238,Dayton
16982,2016-02-19,18:25:00,2217 RUGBY RD Dayton OH 45406,-84.224799,39.787761,Dayton
16983,2016-03-18,14:50:00,3534 PITSBURG DAYTON OH 45406,-84.245879,39.800676,Dayton
16984,2016-03-04,22:45:00,1435 Tennyson Ave Dayton OH 45406,-84.238528,39.7736919,Dayton
16985,2016-03-08,19:15:00,114 YALE AVE DAYTON OH 45406,-84.216059,39.770714,Dayton
16986,2016-03-18,10:20:00,1850 Kensington Dr Dayton OH 45406,-84.2413303,39.7828687,Dayton
16987,2016-03-16,11:30:00,727 W Riverview Ave Dayton OH 45406,-84.204699,39.763005,Dayton
16988,2016-03-22,09:44:00,2685 RUGBY RD DAYTON OH 45406,-84.2251081,39.7944606,Dayton
16989,2016-04-01,13:10:00,29 HELENA ST DAYTON OH 45406,-84.1997619,39.7758709,Dayton
16990,2016-04-26,00:50:00,525 W RIVERVIEW AVE DAYTON OH 45406,-84.2030022,39.765422,Dayton
16991,2016-05-09,17:45:00,3754 Kings Hwy Dayton OH 45406,-84.245983,39.782841,Dayton
16992,2016-04-27,10:50:00,3841 NECCO AVE DAYTON OH 45406,-84.250749,39.779357,Dayton
16993,2016-05-09,16:45:00,1882 Rutland Dr Dayton OH 45406,-84.233649,39.772148,Dayton
16994,2016-06-27,13:15:00,4418 ANNAPOLIS DAYTON OH 45406,-84.2639741,39.8034109,Dayton
16995,2016-05-24,16:00:00,61 Grafton Ave Dayton OH 45406,-84.204223,39.7654772,Dayton
16996,2016-05-27,14:55:00,4012 Larkspur Dr Dayton OH 45406,-84.248514,39.785913,Dayton
16997,2016-05-30,16:40:00,4934 West Hillcrest Avenue Dayton OH 45406,-84.264807,39.790221,Dayton
16998,2016-07-26,01:40:00,1422 Catalpa Dr Dayton OH 45406,-84.224357,39.774308,Dayton
16999,2016-06-10,00:05:00,946 Ferndale Ave Dayton OH 45406,-84.2136205,39.7743674,Dayton
17000,2016-06-10,01:35:00,2015 SHAFTSBURRY RD DAYTON OH 45406,-84.240891,39.785758,Dayton
17001,2016-06-16,16:45:00,2 CENTRAL AVE DAYTON OH 45406,-84.2038879,39.7632672,Dayton
17002,2016-06-20,20:25:00,1225 Amherst Pl Dayton OH 45406,-84.217767,39.774181,Dayton
17003,2016-06-24,03:45:00,1413 HOME AVE DAYTON OH 45406,-84.2166893,39.751004,Dayton
17004,2016-07-01,17:20:00,205 Salem Ave DAYTON OH 45406,-84.206757,39.764728,Dayton
17005,2016-07-14,14:25:00,534 DAYTONA PARKWAY DAYTON OH 45406,-84.22737,39.7956773,Dayton
17006,2016-08-19,12:15:00,1808 Rutland Dr Dayton OH 45406,-84.231157,39.771958,Dayton
17007,2016-08-25,00:30:00,4104 LARKSPUR DRIVE DAYTON OH 45406,-84.251752,39.785875,Dayton
17008,2016-09-09,15:55:00,4671 OWENS DR Dayton OH 45406,-84.261956,39.791617,Dayton
17009,2016-09-19,00:00:00,3616 STANFORD PL DAYTON OH 45406,-84.2478534,39.7769944,Dayton
17010,2016-09-08,10:40:00,1513 Cory Dr DAYTON OH 45406,-84.222897,39.775423,Dayton
17011,2016-09-19,01:10:00,1926 EMERSON AVE DAYTON OH 45406,-84.2228724,39.7833317,Dayton
17012,2016-09-20,01:45:00,2115 Elsmere Ave Dayton OH 45406,-84.2305821,39.7859119,Dayton
17013,2016-09-29,06:20:00,4425 WAYMIRE AVE DAYTON OH 45406,-84.25593,39.787615,Dayton
17014,2016-09-25,11:35:00,1719 RAVENWOOD AVE DAYTON OH 45406,-84.2270999,39.779974,Dayton
17015,2016-09-27,21:35:00,1743 PRINCETON DAYTON OH 45406,-84.232469,39.7729401,Dayton
17016,2016-10-05,00:25:00,3208 AMANDA DR Dayton OH 45406,-84.277189,39.7960939,Dayton
17017,2016-10-10,00:25:00,485 Marathon Ave Dayton OH 45406,-84.2221593,39.7814277,Dayton
17018,2016-11-02,17:40:00,2724 ENGLAND AVE Dayton OH 45406,-84.258026,39.796621,Dayton
17019,2016-10-14,04:00:00,2011 DEWITT DR DAYTON OH 45406,-84.2632671,39.7850536,Dayton
17020,2016-10-14,03:10:00,2929 CATALPA DR DAYTON OH 45406,-84.226459,39.797175,Dayton
17021,2016-10-14,03:45:00,2245 ARLENE AVENUE DAYTON OH 45406,-84.262536,39.7902752,Dayton
17022,2016-10-21,13:00:00,133 WROE AVE DAYTON OH 45406,-84.209363,39.771895,Dayton
17023,2016-10-26,22:45:00,1938 PALISADES DAYTON OH 45406,-84.2020345,39.8233528,Dayton
17024,2016-11-10,01:45:00,2423 RAVENWOOD AVE DAYTON OH 45406,-84.2273249,39.791812,Dayton
17025,2016-11-14,14:25:00,1328 WAKEFIELD AVE DAYTON OH 45406,-84.2314699,39.7862933,Dayton
17026,2016-11-16,01:20:00,2197 FALMOUTH AVE DAYTON OH 45406,-84.251655,39.788619,Dayton
17027,2016-11-28,15:00:00,1632 BURBANK DR DAYTON OH 45406,-84.2333139,39.778528,Dayton
17028,2016-11-29,11:30:00,210 RICHMOND AVE Dayton OH 45406,-84.20996,39.772539,Dayton
17029,2016-12-07,13:50:00,621 SARACUSE DAYTON OH 45406,-84.216263,39.801008,Dayton
17030,2016-12-08,14:40:00,405 W GRAND DAYTON OH 45406,-84.2028737,39.7698481,Dayton
17031,2016-12-15,16:00:00,1848 WESLEYAN RD DAYTON OH 45406,-84.243403,39.78272,Dayton
17032,2016-12-16,18:26:00,2032 CATALPA DR DAYTON OH 45406,-84.2253304,39.7848504,Dayton
17033,2016-12-20,00:40:00,2426 AUBURN AV 2 DAYTON OH 45406,-84.227808,39.791933,Dayton
17034,2016-12-30,15:15:00,500 E 3RD ST DAYTON OH 45406,-84.1850054,39.7603057,Dayton
17035,2016-06-17,15:20:00,424 CLIFTON DR DAYTON OH 45408,-84.2335493,39.7457898,Dayton
17036,2016-02-15,15:25:00,1 Wyoming St Dayton OH 45409,-84.1844696,39.745569,Dayton
17037,2016-04-22,05:35:00,927 BROWN ST DAYTON OH 45409,-84.1831119,39.7459669,Dayton
17038,2016-06-28,01:35:00,2947 Oakland Ave Dayton OH 45409,-84.197594,39.70905,Dayton
17039,2016-06-30,23:35:00,1357 Southlyn Dr Dayton OH 45409,-84.194042,39.708487,Dayton
17040,2016-07-12,12:25:00,1501 CRENSENT BLVD DAYTON OH 45409,-84.1977373,39.7107506,Dayton
17041,2016-08-22,17:55:00,625 Irving DAYTON OH 45409,-84.171632,39.734341,Dayton
17042,2016-07-23,23:10:00,3249 FAIRWAY DR DAYTON OH 45409,-84.191828,39.702357,Dayton
17043,2016-10-25,07:05:00,1332 CENTRAL PARK AVE DAYTON OH 45409,-84.193506,39.709756,Dayton
17044,2016-11-10,11:33:00,3062 SOUTHDALE DRIVE DAYTON OH 45409,-84.196495,39.706619,Dayton
17045,2016-12-06,14:00:00,1158 BELVOIR AV DAYTON OH 45409,-84.190978,39.704947,Dayton
17046,2016-12-14,06:20:00,31-57 Wyoming St DAYTON OH 45409,-84.1868756,39.7437972,Dayton
17047,2016-10-24,10:45:00,750 Forrer BLVD Kettering OH 45409,-84.1509802,39.7165988,Dayton
17048,2016-10-25,23:10:00,1557 OAKLAND AVE KETTERING OH 45409,-84.198334,39.711372,Dayton
17049,2016-08-05,10:10:00,2801 W Stroop Rd Moraine OH 45409,-84.2157478,39.697491,Dayton
17050,2016-03-07,22:00:00,38 Bonner St Dayton OH 45410,-84.18007,39.75025,Dayton
17051,2016-05-20,01:25:00,167 CHURCH ST DAYTON OH 45410,-84.165051,39.75383,Dayton
17052,2016-06-07,16:50:00,4431 ELLIOT AVE DAYTON OH 45410,-84.131773,39.741518,Dayton
17053,2016-07-06,20:45:00,518 BOWEN ST DAYTON OH 45410,-84.153773,39.752488,Dayton
17054,2016-08-26,18:15:00,27 VIRGINIA AVE DAYTON OH 45410,-84.1605027,39.746143,Dayton
17055,2016-09-15,12:00:00,443 QUITMAN ST APT F DAYTON OH 45410,-84.171599,39.7485039,Dayton
17056,2016-09-26,00:00:00,280 FILLMORE ST Dayton OH 45410,-84.1694086,39.7479143,Dayton
17057,2016-09-27,03:45:00,130 XENIA AVE DAYTON OH 45410,-84.1744215,39.7523991,Dayton
17058,2016-09-28,16:35:00,1503 Coventry Ln DAYTON OH 45410,-84.1432761,39.7462993,Dayton
17059,2016-11-03,21:55:00,61 EDGAR AVENUE DAYTON OH 45410,-84.1641203,39.7455337,Dayton
17060,2016-11-04,11:20:00,812 STEELE AVENUE DAYTON OH 45410,-84.1678251,39.7492885,Dayton
17061,2016-12-28,13:40:00,1600 Hearthstone Dr Dayton OH 45410,-84.132955,39.745743,Dayton
17062,2016-11-11,13:50:00,3444 YORK COMMONS BLVD DATYON OH 45414,-84.1962226,39.8440849,Dayton
17063,2016-01-26,00:00:00,5151 Embassy Pl Dayton OH 45414,-84.2007347,39.8223325,Dayton
17064,2016-01-07,20:05:00,6131 Rosecrest Dr Dayton OH 45414,-84.210463,39.835848,Dayton
17065,2016-02-25,19:40:00,7424 Country Brook Ct Dayton OH 45414,-84.244233,39.856045,Dayton
17066,2016-03-07,22:55:00,2822 Coronette Ave Dayton OH 45414,-84.180398,39.8087019,Dayton
17067,2016-03-23,11:35:00,7655 Poe Ave Dayton OH 45414,-84.1880436,39.8586018,Dayton
17068,2016-03-29,13:25:00,8718 MEADOWCREEK DAYTON OH 45414,-84.17421,39.6190659,Dayton
17069,2016-06-27,14:15:00,7130 MILLER LN DAYTON OH 45414,-84.1912524,39.8506632,Dayton
17070,2016-04-06,10:35:00,7370 MILLER  LN DAYTON OH 45414,-84.1914864,39.8541271,Dayton
